Timestamp,Filename,Origin (Easting[ftUS],Northing[ftUS],Height[ftUS]),Direction (Easting,Northing,Height),Up (Easting,Northing,Height),Roll(X)[deg],Pitch(Y)[deg],Yaw(Z)[deg],Omega[deg],Phi[deg],Kappa[deg]
236745.385920000,181204_182503563.jpg,6041009.706,2242810.667,106.627,3.278755215,-0.114858519,-0.014402601,0.019828994,0.158595327,3.276936259,-2.781572128,0.251527502,-2.006315799,177.229192217,-0.346291810,1.991887967
236745.844906000,181204_182504023.jpg,6041000.451,2242811.600,106.594,3.280161311,-0.061989516,-0.018322685,0.021204417,0.159901829,3.276864095,-2.800450004,0.319988590,-1.082664713,177.206340850,-0.370312375,1.065867953
236746.328892000,181204_182504508.jpg,6040991.000,2242812.395,106.582,3.280775734,-0.009284456,-0.007644199,0.007983396,0.166309844,3.276604467,-2.906341004,0.133498243,-0.162144194,177.094344029,-0.139420525,0.155276730
236746.834876000,181204_182505015.jpg,6040981.652,2242812.956,106.533,3.280710353,0.022273841,-0.008827101,0.007701240,0.146613315,3.277545667,-2.560591753,0.154156474,0.388994259,177.438714265,-0.134492986,-0.395397502
236747.364860000,181204_182505546.jpg,6040972.381,2242813.425,106.500,3.280369265,-0.052488910,0.007276933,-0.005660102,0.108440699,3.279035472,-1.892634703,-0.127084323,-0.916706681,178.105865906,0.098847010,0.920473749
236747.939843000,181204_182506122.jpg,6040963.106,2242814.279,106.441,3.265775784,-0.313463799,0.008898881,-0.000486138,0.089289950,3.279617588,-1.552079016,-0.155410087,-5.482709477,178.440465874,0.008489671,5.484956367
236748.562778000,181204_182506747.jpg,6040954.004,2242816.077,106.349,3.185585768,-0.784531725,0.013515126,0.005078461,0.077601084,3.279910948,-1.338010873,-0.236028584,-13.835222782,178.644662173,-0.088689351,13.836948032
236749.260756000,181204_182507446.jpg,6040945.302,2242819.475,106.258,2.965540530,-1.402827531,0.035630390,0.010222596,0.105136315,3.279131464,-1.737528210,-0.622260830,-25.316152105,178.163597221,-0.178525596,25.322734874
236750.080732000,181204_182508268.jpg,6040937.345,2242824.399,106.064,2.583167866,-2.022120184,0.043578653,-0.022542017,0.042039148,3.280487169,-0.336975874,-0.761079308,-38.054064734,179.265799673,0.393672277,38.058798633
236750.974705000,181204_182509163.jpg,6040930.318,2242831.056,105.927,2.116577083,-2.506731763,0.005448673,-0.078600530,-0.059152362,3.279361397,1.713720002,-0.095155557,-49.823683227,-178.966623857,1.372793462,49.809857229
236751.888677000,181204_182510079.jpg,6040925.477,2242839.244,105.998,1.689972336,-2.811649524,-0.047521214,0.089225321,-0.001742544,3.279616028,-1.321950113,0.829938306,-58.991573309,-179.969557408,-1.558406403,58.982465021
236752.826649000,181204_182511019.jpg,6040921.123,2242848.306,106.048,1.381531644,-2.974991042,-0.066609191,0.052762278,-0.048895423,3.280042883,-0.478122578,1.163341146,-65.090703150,-179.145957967,-0.921469743,65.092781937
236753.689622000,181204_182511884.jpg,6040917.636,2242857.559,106.159,1.186419189,-3.058253953,-0.055934688,-0.014040892,-0.065407797,3.280152046,0.639677841,0.976889363,-68.796732416,-178.857645717,0.245207742,68.799791547
236754.552596000,181204_182512748.jpg,6040915.153,2242866.554,106.457,1.067086176,-3.101257073,-0.084669190,0.044179707,-0.074311719,3.279692780,-0.309430645,1.478824822,-71.012591188,-178.702006378,-0.771568831,71.017420455
236755.455569000,181204_182513653.jpg,6040912.694,2242875.610,106.578,0.944265701,-3.141810887,-0.031949145,0.008154453,-0.030889373,3.280677633,0.016771313,0.557967980,-73.271942445,-179.460544708,-0.142407630,73.272725243
236756.999522000,181204_182515200.jpg,6040910.447,2242885.947,106.626,0.826424983,-3.174715756,-0.042846334,-0.000420983,-0.044367616,3.280533524,0.200183334,0.748288699,-75.408899149,-179.225149610,0.007351843,75.410197761
236758.723470000,181204_182516928.jpg,6040908.720,2242895.802,106.700,0.725909594,-3.198999221,-0.055618740,0.008696117,-0.055047361,3.280359900,0.062499169,0.971370966,-77.215077056,-179.038615555,-0.151867581,77.216935265
236760.352421000,181204_182518560.jpg,6040907.342,2242905.593,106.807,0.602971224,-3.224382425,-0.058458213,0.016331961,-0.056410196,3.280307343,-0.101415564,1.020966988,-79.407821108,-179.014802951,-0.285219404,79.409427124
236762.203365000,181204_182520415.jpg,6040906.459,2242915.279,106.923,0.478150805,-3.245409376,-0.048195773,0.052618017,-0.040956758,3.280153902,-0.807020691,0.841720228,-81.618825906,-179.284628528,-0.918949952,81.618682507
235977.578261000,181204_181214209.jpg,6040378.102,2242970.633,107.051,-0.097396413,3.278728873,0.063893901,-0.115925436,-0.067335992,3.278097684,-2.056850392,-1.115912350,91.701501729,-178.823242281,2.024916645,-91.702200578
235979.782193000,181204_181216418.jpg,6040377.856,2242964.855,106.438,-0.092363798,3.278796825,-0.067792432,-0.121926343,0.064326051,3.277939997,-2.095173484,1.184009722,91.613596974,178.875775848,2.129784450,-91.614411862
235980.977157000,181204_181217615.jpg,6040377.324,2242955.018,106.615,-0.085143722,3.279497135,-0.035825828,-0.150462863,0.031881170,3.277231588,-2.611115445,0.625673882,91.487203696,179.442639530,2.628569977,-91.488705092
235981.936127000,181204_181218576.jpg,6040376.785,2242943.729,106.628,-0.061479753,3.280215109,0.006494015,-0.148007543,-0.009276051,3.277485455,-2.586129049,-0.113411412,91.073746040,-179.837840094,2.585646613,-91.074833965
235982.634106000,181204_181219275.jpg,6040376.281,2242932.881,106.472,-0.046040543,3.280469890,0.005546295,-0.124803185,-0.007308451,3.278455176,-2.179531372,-0.096860422,90.804078601,-179.872274467,2.180060017,-90.804656218
235983.225088000,181204_181219867.jpg,6040375.729,2242922.214,106.338,-0.035893162,3.280536462,0.020615597,-0.109892157,-0.021821825,3.278923913,-1.921438528,-0.360032716,90.626862298,-179.618691941,1.919490799,-90.627188610
235983.765072000,181204_181220409.jpg,6040375.218,2242912.043,106.170,0.021516575,3.280666985,0.019848731,-0.074471951,-0.019372006,3.279933631,-1.296313995,-0.346639940,89.624225427,-179.661602430,1.300673405,-89.624122533
235984.285056000,181204_181220930.jpg,6040374.332,2242902.212,106.050,0.116344891,3.278701834,0.014528573,-0.092501147,-0.011269529,3.279513154,-1.605536010,-0.253727514,87.967709248,-179.803112807,1.615633416,-87.966911205
235984.805040000,181204_181221451.jpg,6040373.153,2242893.023,105.988,0.165081168,3.276496864,0.030801060,-0.134945212,-0.024037106,3.277973846,-2.331104364,-0.537916980,87.115680759,-179.579862082,2.357316821,-87.113343631
235985.409021000,181204_181222056.jpg,6040372.005,2242884.019,105.870,0.126595062,3.278299910,0.018873396,-0.154650690,-0.012914866,3.277166642,-2.688974745,-0.329606406,87.788560905,-179.774206310,2.701784337,-87.786123327
235986.123000000,181204_181222771.jpg,6040371.012,2242874.998,105.787,0.056990014,3.280220642,0.023182448,-0.172537492,-0.020173950,3.276237643,-3.005874360,-0.404861148,89.004652683,-179.647196446,3.014543837,-89.003283252
235987.022972000,181204_181223673.jpg,6040370.390,2242866.275,105.687,-0.010121831,3.280253914,0.058852588,-0.149836566,-0.059268367,3.276879820,-2.618707877,-1.027855521,90.176796174,-178.963813630,2.617620693,-90.176914279
235990.078878000,181204_181226735.jpg,6040369.736,2242853.584,105.457,-0.041730780,3.276988979,0.152419040,-0.101267368,-0.153658013,3.275672488,-1.800720796,-2.662801714,90.729593038,-177.314288793,1.768791150,-90.729053913
235992.062818000,181204_181228723.jpg,6040369.417,2242844.120,104.964,-0.408010171,3.254878545,0.054105931,-0.099565716,-0.066981071,3.278642037,-1.868990565,-0.944947611,97.144953659,-178.829637446,1.739060174,-97.147250793
235993.323779000,181204_181229987.jpg,6040370.948,2242834.174,104.537,-1.344106459,2.991664503,-0.083367586,-0.071888846,0.059127413,3.279515010,-0.719972975,1.456086761,114.193612239,178.967108099,1.255551714,-114.191525364
235994.279750000,181204_181230944.jpg,6040375.119,2242824.752,104.673,-2.208408169,2.424022995,-0.103275884,-0.160290446,-0.006327446,3.276915151,-2.142457380,1.803906921,132.335112039,-179.889366978,2.800388944,-132.371654393
235995.048727000,181204_181231715.jpg,6040382.524,2242816.979,104.888,-2.834079750,1.650799211,-0.080451544,-0.130120132,-0.063464170,3.277642689,-2.100625721,1.405145837,149.779988689,-178.890734388,2.272983911,-149.827836212
235995.681708000,181204_181232349.jpg,6040391.559,2242811.648,105.027,-3.128301549,0.987307282,-0.050757582,-0.089120528,-0.113508925,3.277661580,-2.358592588,0.886465127,162.484048723,-178.016578047,1.556572143,-162.529304271
235996.264690000,181204_181232933.jpg,6040401.750,2242808.179,105.071,-3.237252940,0.530062187,-0.053373345,-0.073504242,-0.118133683,3.277885009,-2.243348170,0.932152594,170.701005112,-177.935975381,1.283769079,-170.742437942
235996.785674000,181204_181233455.jpg,6040412.225,2242806.005,105.100,-3.271747604,0.236605053,-0.057493925,-0.066751646,-0.124898831,3.277778462,-2.259784722,1.004124685,175.863705347,-177.817815537,1.165816387,-175.905766400
235997.260659000,181204_181233931.jpg,6040422.655,2242804.755,105.153,-3.280160150,0.046805001,-0.044514030,-0.046226828,-0.113103585,3.278559526,-1.986640996,0.777416292,179.182495091,-178.024196242,0.807322100,-179.209938642
235997.714646000,181204_181234386.jpg,6040433.088,2242803.954,105.178,-3.279290949,-0.090619596,-0.040774957,-0.037189112,-0.133531020,3.277905835,-2.313557635,0.712111625,-178.417097030,-177.667248842,0.649476568,178.389447433
235998.147632000,181204_181234820.jpg,6040443.382,2242803.764,105.194,-3.276610213,-0.161694703,-0.036125829,-0.032050937,-0.085702905,3.279558733,-1.467289019,0.630913701,-177.174850209,-178.503061016,0.559739720,177.159428698
235998.558620000,181204_181235232.jpg,6040453.342,2242803.545,105.184,-3.275506047,-0.178912770,-0.051684838,-0.046390317,-0.100160424,3.278978103,-1.702494186,0.902660746,-176.873530334,-178.250373432,0.810177270,176.847711799
235998.969607000,181204_181235644.jpg,6040463.462,2242803.402,105.244,-3.275500652,-0.182085157,-0.039550845,-0.033926789,-0.104124631,3.279006817,-1.782864745,0.690732137,-176.818201108,-178.181187141,0.592500805,176.798012462
235999.380595000,181204_181236056.jpg,6040473.511,2242803.202,105.296,-3.274799974,-0.193309751,-0.044036083,-0.036540654,-0.129784809,3.278063552,-2.225419580,0.769068669,-176.621779864,-177.732733787,0.638151179,176.594169950
235999.791582000,181204_181236467.jpg,6040483.362,2242803.160,105.326,-3.274679031,-0.196391134,-0.039135673,-0.032543744,-0.112757728,3.278735298,-1.931854052,0.683481057,-176.567931849,-178.030338668,0.568346346,176.546599795
236000.202570000,181204_181236879.jpg,6040492.911,2242803.033,105.379,-3.274396841,-0.202335992,-0.031797065,-0.024052194,-0.127917771,3.278251885,-2.204186607,0.555312145,-176.463997185,-177.765444888,0.420046011,176.445079213
236000.613557000,181204_181237291.jpg,6040502.161,2242803.053,105.424,-3.274134073,-0.207699598,-0.023120540,-0.016667104,-0.104217284,3.279136385,-1.798117508,0.403780052,-176.370220188,-178.179641840,0.291071973,176.359224558
236001.046544000,181204_181237725.jpg,6040511.599,2242803.015,105.422,-3.273175310,-0.221850603,-0.027062153,-0.019967539,-0.107192742,3.279022170,-1.844325956,0.472618358,-176.122513787,-178.127640917,0.348711052,176.109172125
236001.479531000,181204_181238159.jpg,6040520.781,2242803.030,105.434,-3.272275832,-0.234856243,-0.026082556,-0.018675254,-0.105668967,3.279079189,-1.817493464,0.455510135,-175.894833362,-178.154270314,0.326142457,175.882319156
236001.934517000,181204_181238615.jpg,6040530.142,2242803.103,105.440,-3.271290183,-0.248385998,-0.024336553,-0.017281411,-0.095327326,3.279403674,-1.637268519,0.425017058,-175.657916716,-178.334966354,0.301800370,175.647426600
236002.412502000,181204_181239094.jpg,6040539.620,2242803.176,105.426,-3.270090031,-0.261841755,-0.039669299,-0.031822937,-0.100888815,3.279128973,-1.712083452,0.692800968,-175.421995266,-178.237738597,0.555757750,175.403062306
236002.883487000,181204_181239565.jpg,6040548.713,2242803.334,105.474,-3.268995818,-0.276549011,-0.028518122,-0.021034413,-0.090996441,3.279504907,-1.552625637,0.498046295,-175.164431595,-178.410620871,0.367342778,175.152557499
236003.389472000,181204_181240072.jpg,6040558.135,2242803.500,105.500,-3.267878583,-0.290011757,-0.022148339,-0.013789713,-0.096449283,3.279387287,-1.656643326,0.386801150,-174.928504479,-178.315372239,0.240821441,174.919339845
236003.908456000,181204_181240593.jpg,6040567.377,2242803.735,105.502,-3.266236563,-0.306445979,-0.037597584,-0.030032197,-0.083585745,3.279632397,-1.404422143,0.656618050,-174.640065942,-178.540057180,0.524483332,174.625308106
236004.448440000,181204_181241134.jpg,6040576.653,2242803.956,105.548,-3.265183073,-0.317783224,-0.034899157,-0.026455547,-0.089590972,3.279504542,-1.512603018,0.609489857,-174.441207925,-178.435156900,0.462019162,174.426823304
236005.030422000,181204_181241717.jpg,6040586.227,2242804.405,105.581,-3.264670976,-0.322364964,-0.040342332,-0.036825777,-0.038823776,3.280398463,-0.611478483,0.704555707,-174.360696351,-179.321931247,0.643130897,174.353118398
235892.930895000,181204_181049391.jpg,6040070.525,2242799.578,104.156,-3.260246570,-0.360268226,-0.067948967,-0.050567680,-0.161454359,3.276470592,-2.706538009,1.186744991,-173.694207015,-177.178921833,0.883137794,173.644373761
235893.258885000,181204_181049720.jpg,6040080.937,2242799.993,104.267,-3.259937444,-0.366812801,-0.043359405,-0.025472502,-0.162037777,3.276732067,-2.763364166,0.757250097,-173.580001150,-177.168969888,0.444850802,173.550691986
235893.586875000,181204_181050049.jpg,6040091.418,2242800.490,104.272,-3.259595988,-0.370257115,-0.039603067,-0.023550833,-0.144319608,3.277574473,-2.458583230,0.691644184,-173.519555721,-177.478754688,0.411290250,173.495617140
235893.914865000,181204_181050377.jpg,6040102.015,2242800.931,104.277,-3.259951294,-0.366026175,-0.048630885,-0.031952882,-0.151915888,3.277160359,-2.575048188,0.849320248,-173.593681173,-177.345898798,0.558026918,173.561616592
235894.221855000,181204_181050685.jpg,6040112.078,2242801.427,104.323,-3.260473541,-0.363105241,-0.033062973,-0.019642133,-0.123251204,3.278459858,-2.101689451,0.577421008,-173.645394071,-177.847022076,0.343027977,173.628317177
235894.528846000,181204_181050993.jpg,6040122.133,2242801.860,104.320,-3.260896192,-0.358879024,-0.037244318,-0.024491357,-0.118828278,3.278590671,-2.016337012,0.650448176,-173.719568948,-177.924296437,0.427715821,173.700335948
235894.835836000,181204_181051300.jpg,6040132.204,2242802.313,104.339,-3.261536780,-0.353035585,-0.036999921,-0.026377751,-0.101114401,3.279170146,-1.706231235,0.646179758,-173.822236616,-178.233822751,0.460660495,173.805481345
235895.142827000,181204_181051608.jpg,6040142.202,2242802.684,104.354,-3.262309510,-0.343438705,-0.054840528,-0.044202557,-0.104853126,3.278861557,-1.740477356,0.957778945,-173.990339101,-178.168389474,0.771967225,173.963416811
235895.449818000,181204_181051915.jpg,6040152.254,2242803.004,104.449,-3.262713184,-0.342726536,-0.029466131,-0.018252579,-0.109317227,3.278961974,-1.865636628,0.514602947,-174.003446680,-178.090524275,0.318760866,173.989720334
235895.756808000,181204_181052223.jpg,6040162.153,2242803.365,104.474,-3.261071905,-0.357936813,-0.030300179,-0.018655477,-0.108726801,3.278979344,-1.852193663,0.529169349,-173.736261368,-178.100839581,0.325797092,173.722272321
235896.063846000,181204_181052531.jpg,6040171.978,2242803.807,104.509,-3.260292424,-0.366001592,-0.012928487,-0.002689138,-0.092987782,3.279514726,-1.608727386,0.225783427,-173.594772548,-178.375862934,0.046962682,173.590907015
235896.370883000,181204_181052838.jpg,6040181.500,2242804.242,104.489,-3.260308241,-0.365396115,-0.022463719,-0.012840761,-0.088148028,3.279624697,-1.504989396,0.392309053,-173.605311652,-178.460404485,0.224248861,173.597117519
235896.677873000,181204_181053146.jpg,6040190.734,2242804.691,104.515,-3.261806466,-0.352419625,-0.007171411,-0.000698606,-0.061426117,3.280258492,-1.065234726,0.125241478,-173.833438132,-178.927204358,0.012200201,173.832139601
235896.984817000,181204_181053453.jpg,6040199.487,2242805.016,104.491,-3.263359295,-0.336055629,-0.034330461,-0.027467117,-0.069537790,3.279982651,-1.158895775,0.599557570,-174.120495093,-178.785473381,0.479685472,174.109324633
235897.315807000,181204_181053785.jpg,6040208.613,2242805.322,104.560,-3.265359402,-0.317454778,-0.016747783,-0.010548468,-0.065812114,3.280156920,-1.126118918,0.292484233,-174.447215292,-178.850588123,0.184216765,174.442471661
235897.669796000,181204_181054140.jpg,6040217.829,2242805.584,104.579,-3.266849433,-0.301489316,-0.020689686,-0.015464779,-0.058867337,3.280269555,-0.998852502,0.361326694,-174.727252093,-178.971886564,0.270074706,174.721659941
235898.008739000,181204_181054479.jpg,6040226.179,2242805.799,104.573,-3.268030149,-0.287476483,-0.031028319,-0.026685756,-0.052084771,3.280312556,-0.865207365,0.541886146,-174.972843101,-179.090334137,0.466039505,174.965034587
235898.422727000,181204_181054894.jpg,6040235.906,2242805.991,104.633,-3.269212515,-0.274906480,-0.017487023,-0.013820471,-0.045780210,3.280485523,-0.776388167,0.305394484,-175.193334046,-179.200470915,0.241358480,175.189565692
235898.821715000,181204_181055294.jpg,6040244.648,2242806.096,104.669,-3.269989900,-0.265767483,-0.012829666,-0.008520616,-0.055030453,3.280361288,-0.945770906,0.224057610,-175.353515045,-179.038911274,0.148802348,175.350399494
235899.267748000,181204_181055741.jpg,6040253.602,2242806.198,104.678,-3.270610998,-0.257636633,-0.018881654,-0.014689779,-0.055484151,3.280332055,-0.945762965,0.329750680,-175.495926571,-179.030980515,0.256539987,175.491016881
235899.760779000,181204_181056235.jpg,6040262.561,2242806.278,104.694,-3.271303971,-0.248577528,-0.020214559,-0.016239513,-0.054660178,3.280338632,-0.930271282,0.353028932,-175.654599613,-179.045370431,0.283604516,175.649352556
235900.321762000,181204_181056797.jpg,6040271.630,2242806.333,104.713,-3.271913784,-0.240243444,-0.022178290,-0.018366942,-0.054353051,3.280332584,-0.923096456,0.387324208,-175.800537932,-179.050731522,0.320758238,175.794742190
235900.963742000,181204_181057440.jpg,6040280.731,2242806.352,104.726,-3.272519900,-0.231564722,-0.024883593,-0.020886875,-0.059041676,3.280236580,-1.002703023,0.434570812,-175.952475751,-178.968832172,0.364766425,175.945370624
235901.724719000,181204_181058203.jpg,6040290.317,2242806.364,104.727,-3.273140595,-0.221325675,-0.034514057,-0.030837128,-0.057283084,3.280189669,-0.961685297,0.602764086,-176.131619641,-178.999525457,0.538540910,176.121838980
235902.525694000,181204_181059006.jpg,6040300.255,2242806.338,104.754,-3.273901347,-0.208037590,-0.043745365,-0.040222500,-0.058653502,3.280064149,-0.977614967,0.763991111,-176.364071480,-178.975556376,0.702454625,176.351252294
235903.306671000,181204_181059788.jpg,6040310.620,2242806.249,104.801,-3.275358143,-0.184911188,-0.038229686,-0.034993087,-0.060467899,3.280090979,-1.019776446,0.667657793,-176.768781937,-178.943881620,0.611123424,176.757186056
235904.035602000,181204_181100518.jpg,6040320.987,2242806.039,104.840,-3.273629453,-0.214417357,-0.031647490,-0.026429768,-0.082422179,3.279692716,-1.406171925,0.552699838,-176.252573214,-178.560398492,0.461568952,176.239963636
235904.741580000,181204_181101226.jpg,6040331.172,2242806.052,104.843,-3.247396764,-0.465505205,-0.036662076,-0.021063167,-0.112156241,3.278849354,-1.887041485,0.640279275,-171.842383392,-178.040905054,0.367845185,171.825514473
235905.447559000,181204_181101933.jpg,6040341.236,2242807.204,104.864,-3.095248041,-1.087384817,-0.025721164,0.015754114,-0.122755289,3.278498141,-2.114721804,0.449198565,-160.643226360,-177.855701760,-0.275127688,160.640051435
235906.153490000,181204_181102641.jpg,6040350.598,2242810.670,104.875,-2.724415447,-1.827887270,-0.004632717,0.041412921,-0.070234877,3.279818811,-1.422610995,0.080905694,-146.141223777,-178.773240552,-0.723246095,146.147940785
235906.859469000,181204_181103348.jpg,6040358.179,2242815.951,104.845,-2.260912742,-2.377232646,0.026027447,0.039510166,-0.001791648,3.280593467,-0.522899433,-0.454547418,-133.563382070,-179.968708687,-0.690014337,133.565621226
235907.785440000,181204_181104276.jpg,6040364.632,2242822.662,104.727,-1.848831476,-2.709919661,0.042410903,0.025348486,0.033947282,3.280558658,-0.033159655,-0.740683460,-124.303601533,179.407123280,-0.442685192,124.301494269
235909.334393000,181204_181105828.jpg,6040370.584,2242830.342,104.462,-1.346682145,-2.988200651,-0.143946588,0.039437185,-0.175645654,3.275890107,-1.890405168,2.514689327,-114.259497722,-176.930870789,-0.688739771,114.236556908
235910.651353000,181204_181107148.jpg,6040375.109,2242838.893,104.740,-0.707357340,-3.198087155,-0.188423965,0.168663977,-0.229911835,3.268413229,-3.747840645,3.292445881,-102.471965885,-175.976237511,-2.946816704,102.467907801
235911.637276000,181204_181108135.jpg,6040377.284,2242848.774,105.319,-0.372589252,-3.258254753,-0.092637552,0.096082420,-0.104207754,3.277766898,-1.876287058,1.618035627,-96.523573291,-178.179048081,-1.678205129,96.523828681
235912.616246000,181204_181109116.jpg,6040378.949,2242857.454,105.596,-0.248735428,-3.270959671,-0.050839222,0.143293959,-0.061855903,3.277113768,-2.580151186,0.887890708,-94.348605990,-178.918663669,-2.503256248,94.352276213
235765.724836000,181204_180841929.jpg,6040232.150,2243141.037,106.179,-0.303780511,-3.262460921,0.166466884,0.111860199,0.156668652,3.275175799,-1.693773710,-2.908421357,-95.319695489,177.261332383,-1.953885240,95.315819458
235768.734790000,181204_180844945.jpg,6040232.721,2243145.234,106.080,-0.350149082,-3.260506476,0.100671717,0.061491364,0.094603922,3.278889742,-0.893444332,-1.758404023,-96.129559915,178.347335566,-1.073936356,96.127680550
235770.151746000,181204_180846365.jpg,6040234.550,2243154.675,105.131,-0.400289390,-3.251662489,-0.173453125,0.031870254,-0.178692237,3.275808009,-0.935809733,3.030595537,-97.017973244,-176.877662612,-0.556584331,97.008548008
235771.346710000,181204_180847562.jpg,6040236.427,2243164.519,105.663,-0.419766070,-3.252914737,-0.077288525,0.029379296,-0.081746367,3.279682472,-0.693650888,1.349890136,-97.352988108,-178.572192846,-0.513081025,97.351279743
235772.379678000,181204_180848597.jpg,6040238.476,2243175.076,105.816,-0.364506989,-3.259911489,-0.061190572,0.030399321,-0.064996583,3.280047761,-0.655828080,1.068692830,-96.380026448,-178.864789819,-0.530895150,96.379224757
235773.137608000,181204_180849357.jpg,6040240.300,2243185.637,105.918,-0.295462126,-3.267302832,-0.032690918,0.031099759,-0.035662203,3.280491112,-0.599104496,0.570922911,-95.167201643,-179.377162244,-0.543128189,95.167197544
235773.776589000,181204_180849997.jpg,6040241.918,2243196.222,105.923,-0.236677590,-3.272245377,-0.005459701,0.034859011,-0.008020399,3.280637082,-0.619399352,0.095348134,-94.136931103,-179.859925500,-0.608782197,94.137162673
235774.365524000,181204_180850587.jpg,6040243.507,2243206.973,105.839,-0.202381557,-3.274545472,0.005501741,0.068696928,0.001240974,3.280111234,-1.198283500,-0.096082311,-93.536636956,179.978322979,-1.199797671,93.537404932
235774.888508000,181204_180851111.jpg,6040244.878,2243217.284,105.723,-0.181983620,-3.275744199,0.004323183,0.078231790,-0.000041060,3.279897558,-1.366402692,-0.075499980,-93.179792300,-179.999282803,-1.366354580,93.180691943
235775.391493000,181204_180851615.jpg,6040246.143,2243227.722,105.571,-0.171247109,-3.276260836,-0.020622069,0.066008441,-0.024118969,3.280078233,-1.175367480,0.360145703,-92.992074287,-179.578702211,-1.152836488,92.992634287
235775.872478000,181204_180852097.jpg,6040247.427,2243238.058,105.541,-0.158841431,-3.276920877,-0.013971509,0.081034944,-0.017934037,3.279780452,-1.430946726,0.243998836,-92.775113010,-179.686706206,-1.415322604,92.775944288
235776.333464000,181204_180852559.jpg,6040248.620,2243248.010,105.517,-0.129971057,-3.278222530,0.001293986,0.091787333,-0.002366188,3.279544850,-1.605665322,-0.022598144,-92.270405638,-179.958661239,-1.603165955,92.271294004
235776.794450000,181204_180853021.jpg,6040249.697,2243257.373,105.515,-0.088555216,-3.279598044,0.005657996,0.123974855,0.002288355,3.278484688,-2.165850790,-0.098811150,-91.546716238,179.960007940,-2.165589990,91.547816000
235777.283435000,181204_180853511.jpg,6040250.590,2243266.127,105.467,-0.026384725,-3.280689450,-0.004201763,0.149268058,-0.005415741,3.277425903,-2.610507275,0.073379510,-90.460787536,-179.905322410,-2.607691199,90.461267571
235777.855417000,181204_180854084.jpg,6040251.168,2243274.920,105.432,0.087098064,-3.279638563,-0.004697290,0.135382010,-0.001113107,3.278033648,-2.365754630,0.082033377,-88.478741283,-179.980544342,-2.364958592,88.477448816
235778.556396000,181204_180854787.jpg,6040251.377,2243283.908,105.425,0.277551020,-3.268991221,0.017305586,0.117783972,0.027349958,3.278599766,-2.092609741,-0.302225721,-85.146987800,179.522051785,-2.057400008,85.143906127
235779.475367000,181204_180855707.jpg,6040251.031,2243292.993,105.337,0.580773639,-3.228825536,0.032013955,0.120566378,0.054193967,3.278164525,-2.242568230,-0.559099782,-79.803158812,179.052883474,-2.106023713,79.796662750
235780.561381000,181204_180856795.jpg,6040249.435,2243302.898,105.202,1.129638076,-3.079232586,0.076670577,0.095392787,0.116625541,3.277367621,-2.268172784,-1.339095165,-69.854083496,177.961981644,-1.666156842,69.850890171
235781.557350000,181204_180857794.jpg,6040246.030,2243311.992,104.836,1.774998398,-2.757941582,-0.082376474,0.105278386,-0.030119971,3.279001636,-1.263416728,1.438771250,-57.234855505,-179.473711847,-1.838877635,57.227520715
235782.394325000,181204_180858632.jpg,6040240.475,2243320.341,104.701,2.406951779,-2.224263290,-0.151322507,0.137614339,-0.073914242,3.277107701,-0.684720201,2.643627306,-42.741012892,-178.707928484,-2.403977406,42.752447303
235783.125302000,181204_180859365.jpg,6040233.101,2243327.483,105.103,2.867842212,-1.592363906,-0.059228819,0.101491535,0.061037336,3.278690945,-1.793918099,1.034426208,-29.041140614,178.933483142,-1.772712293,29.008506348
235783.784236000,181204_180900025.jpg,6040224.648,2243332.406,105.204,3.155647940,-0.896633260,-0.039772735,0.074805793,0.118289207,3.277843287,-2.345715998,0.694606753,-15.861758118,177.933233930,-1.306507583,15.824025562
235784.399217000,181204_180900641.jpg,6040215.067,2243335.128,105.225,3.267622948,-0.292043309,-0.031569163,0.039490015,0.088699686,3.279394382,-1.604976227,0.551331374,-5.107231885,178.450664923,-0.689662468,5.090220244
235784.961199000,181204_180901204.jpg,6040205.131,2243336.415,105.213,3.280604323,-0.007486584,-0.035011275,0.035082744,0.090379882,3.279398766,-1.580277996,0.611447375,-0.130753022,178.421333401,-0.612689948,0.113913102
235785.521229000,181204_180901765.jpg,6040194.276,2243337.042,105.201,3.278986527,0.105989603,-0.025649816,0.022451103,0.095268155,3.279371653,-1.650671375,0.447952168,1.851377921,178.335983040,-0.392084547,-1.863491710
235786.012261000,181204_180902257.jpg,6040184.120,2243337.275,105.169,3.275822065,0.177168080,-0.035327305,0.031016781,0.078213195,3.279752695,-1.334959297,0.616966821,3.095743016,178.633909936,-0.541679092,-3.109360775
235786.503246000,181204_180902749.jpg,6040173.401,2243337.345,105.167,3.273313180,0.220315279,-0.022927844,0.018447250,0.065454091,3.280127448,-1.119088033,0.400414436,3.850571261,178.856829210,-0.322160820,-3.857673212
235786.948279000,181204_180903195.jpg,6040163.395,2243337.320,105.141,3.273625146,0.215103731,-0.027452659,0.023857454,0.053696821,3.280305955,-0.908608984,0.479437986,3.759393307,179.062182827,-0.416645495,-3.766585746
235787.393311000,181204_180903641.jpg,6040153.186,2243337.413,105.138,3.275749581,0.180839194,-0.020122801,0.016398117,0.065737005,3.280132744,-1.130741287,0.351426212,3.159831261,178.851890887,-0.286374636,-3.166145716
235787.818345000,181204_180904067.jpg,6040143.410,2243337.550,105.128,3.277534946,0.145072354,-0.019012441,0.016472826,0.054977797,3.280330398,-0.946706398,0.332034567,2.534408285,179.039821822,-0.287679347,-2.539542678
235788.243332000,181204_180904493.jpg,6040133.706,2243337.844,105.102,3.278475385,0.120799071,-0.025517203,0.023002436,0.065273343,3.280102102,-1.124647978,0.445636142,2.110172105,178.859976084,-0.401713286,-2.118519039
235788.668319000,181204_180904919.jpg,6040124.150,2243338.137,105.106,3.278959202,0.108529067,-0.017038688,0.014925228,0.060365557,3.280243114,-1.045297455,0.297564497,1.895719905,178.945717512,-0.260651985,-1.900811552
235789.093259000,181204_180905345.jpg,6040114.825,2243338.495,105.120,3.279347328,0.097069744,-0.009957577,0.007885897,0.065953457,3.280160220,-1.147530928,0.173899126,1.695478590,178.848121448,-0.137717920,-1.698582120
235789.518246000,181204_180905770.jpg,6040105.741,2243338.859,105.084,3.279017865,0.107633223,-0.009875247,0.007278065,0.075493416,3.279955905,-1.313867787,0.172461294,1.880049521,178.681478633,-0.127102868,-1.883464197
235789.964186000,181204_180906217.jpg,6040096.390,2243339.172,105.067,3.278148029,0.131809258,0.003042048,-0.006504351,0.083042388,3.279775552,-1.454000516,-0.053126254,2.302534288,178.549606836,0.113590713,-2.300395828
235790.410172000,181204_180906664.jpg,6040087.309,2243339.403,105.000,3.277223729,0.152971966,-0.006644284,0.002818868,0.079453788,3.279869368,-1.384096733,0.116035678,2.672472699,178.612299049,-0.049228137,-2.674444207
235790.877158000,181204_180907132.jpg,6040077.922,2243339.605,104.949,3.277162651,0.153683597,0.014866186,-0.018937850,0.083985111,3.279703776,-1.480948715,-0.259623618,2.684936961,178.533116704,0.330728441,-2.677321488
235791.364097000,181204_180907620.jpg,6040068.458,2243339.816,104.833,3.278453081,0.123881984,0.005972548,-0.009047079,0.078076238,3.279891623,-1.368851881,-0.104304485,2.163989949,178.636358582,0.157996623,-2.160838948
235791.851082000,181204_180908108.jpg,6040059.193,2243340.071,104.760,3.279561718,0.089566320,0.009435379,-0.011214404,0.060621515,3.280254144,-1.063934561,-0.164779452,1.564384903,178.941252206,0.195846362,-1.561026721
235792.360066000,181204_180908618.jpg,6040049.849,2243340.523,104.653,3.280123228,0.066517483,0.002256001,-0.003914841,0.075817734,3.279954572,-1.325555092,-0.039398742,1.161739514,178.675815859,0.068368001,-1.160469314
235792.891050000,181204_180909150.jpg,6040040.759,2243341.013,104.584,3.280278826,0.056979548,-0.012883539,0.011198888,0.089820619,3.279583563,-1.565436570,0.224998329,0.995146910,178.431185550,-0.195575601,-1.000868028
235793.477985000,181204_180909738.jpg,6040031.758,2243341.442,104.616,3.280188556,0.062765282,0.007767495,-0.009458636,0.082091205,3.279792427,-1.436933465,-0.135651471,1.096201302,178.566220519,0.165183851,-1.092407716
235794.174964000,181204_180910437.jpg,6040022.957,2243341.925,104.533,3.279558585,0.089550565,-0.010843556,0.007932859,0.102096829,3.279233922,-1.779085474,0.189371899,1.564111358,178.216708510,-0.138537967,-1.569173556
235795.161887000,181204_180911425.jpg,6040013.926,2243342.227,104.517,3.277804933,0.138834120,-0.019062042,0.015055560,0.091939301,3.279509251,-1.593463160,0.332900803,2.425360109,178.394163193,-0.262928116,-2.433643109
235797.461817000,181204_180913730.jpg,6040002.564,2243342.427,104.483,3.273468839,0.216201106,-0.036146061,0.030078758,0.090999126,3.279431548,-1.551469458,0.631266371,3.778696733,178.410538293,-0.525296954,-3.794499317
235800.494723000,181204_180916769.jpg,6039993.726,2243342.451,104.470,3.262690511,0.339447443,-0.057262808,0.046431691,0.105632053,3.278801345,-1.751280057,1.000086303,5.939633402,178.154758713,-0.810901025,-5.967943297
235801.578690000,181204_180917855.jpg,6039983.262,2243341.754,104.523,3.149012479,0.918608768,-0.059427273,0.017685886,0.150954382,3.277309490,-2.444709924,1.037892411,16.262666195,177.362793129,-0.308864315,-16.291884737
235802.358666000,181204_180918637.jpg,6039972.805,2243338.706,104.552,2.819185978,1.676280946,-0.076999255,-0.009449834,0.166179133,3.276607812,-2.578875182,1.344835373,30.735610855,177.096626997,0.165030160,-30.761684617
235803.007647000,181204_180919287.jpg,6039963.511,2243333.063,104.647,2.317724683,2.321131853,-0.064424417,-0.043208964,0.133983824,3.277812424,-2.186543884,1.125178013,45.042082871,177.659280696,0.754613979,-45.048144131
235708.496543000,181204_180744586.jpg,6040508.695,2243142.490,106.718,-0.599689471,-3.221682538,0.157421773,0.034290806,0.153701622,3.277049497,-0.099564937,-2.750264666,-100.544455175,177.314655117,-0.598858828,100.532661350
235711.511497000,181204_180747607.jpg,6040509.907,2243146.612,106.642,-0.645471972,-3.216079407,0.061961370,0.045515346,0.054016861,3.280070870,-0.595742491,-1.082156024,-101.348574554,179.056526574,-0.794896621,101.347594495
235713.067496000,181204_180749166.jpg,6040512.336,2243155.923,106.024,-0.716360766,-3.200651777,-0.079275604,-0.049839444,-0.070120823,3.279707411,0.579915927,1.384602461,-102.615860639,-178.775190811,0.870418812,102.613640775
235714.345457000,181204_180750446.jpg,6040515.663,2243166.360,106.400,-0.747864266,-3.192942473,-0.097183314,0.009367464,-0.102046775,3.279232666,-0.567714059,1.697456081,-103.182417923,-178.217581527,-0.163591742,103.176638088
235715.109434000,181204_180751212.jpg,6040519.029,2243177.004,106.609,-0.683571150,-3.208024933,-0.070257883,0.060095522,-0.084662725,3.279188319,-1.336733061,1.227076166,-102.028780117,-178.521054663,-1.049555172,102.028068489
235715.745367000,181204_180751849.jpg,6040522.146,2243188.488,106.731,-0.542827662,-3.235544383,-0.014995785,0.063890910,-0.025958073,3.280106202,-1.177544859,0.261886969,-99.523825536,-179.546582628,-1.115849080,99.525557159
235716.244352000,181204_180752349.jpg,6040524.393,2243198.496,106.698,-0.405995250,-3.255517835,0.020203325,0.064701291,0.012255114,3.280169919,-1.096907035,-0.352832614,-97.108649040,179.785936713,-1.130004191,97.109891046
235716.755336000,181204_180752861.jpg,6040526.382,2243208.953,106.561,-0.265044115,-3.269985165,0.024197427,0.098355816,0.016267310,3.279314587,-1.691454013,-0.422587096,-94.633899941,179.715781739,-1.717924934,94.635846784
235717.239322000,181204_180753346.jpg,6040527.807,2243219.053,106.410,-0.158313237,-3.276916723,0.019760222,0.103643088,0.014743583,3.279158760,-1.797886374,-0.345094118,-92.765902807,179.742391355,-1.810304757,92.767222277
235717.723307000,181204_180753831.jpg,6040528.989,2243229.124,106.257,-0.080864497,-3.279736576,0.020636998,0.126554335,0.017487781,3.278340100,-2.204599269,-0.360406396,-91.412386558,179.694367651,-2.210670528,91.413397292
235718.207292000,181204_180754316.jpg,6040529.896,2243238.868,106.135,-0.017378734,-3.280731046,0.011769490,0.135852125,0.011022425,3.277995770,-2.374263338,-0.205542525,-90.303505167,179.807340581,-2.373175837,90.303755986
235718.691277000,181204_180754801.jpg,6040530.607,2243248.247,106.040,0.037592087,-3.280572467,0.008237909,0.155953350,0.010000756,3.277103461,-2.728541935,-0.143866798,-89.343476274,179.825150739,-2.724568873,89.342729750
235719.195262000,181204_180755306.jpg,6040531.099,2243257.371,105.937,0.093676651,-3.279456961,-0.004825756,0.158969723,-0.000294364,3.276973713,-2.778180060,0.084276921,-88.363809094,-179.994853103,-2.777307118,88.361889341
235719.744245000,181204_180755856.jpg,6040531.353,2243266.558,105.916,0.148371987,-3.277441286,0.001107516,0.133412825,0.007136135,3.278106830,-2.335948689,-0.019341640,-87.407951029,179.875272430,-2.330540352,87.405803102
235720.371226000,181204_180756484.jpg,6040531.546,2243275.486,105.886,0.223213084,-3.273188915,0.006873506,0.143426195,0.016655101,3.277649003,-2.521725446,-0.120038833,-86.098789930,179.708858667,-2.505568234,86.095055023
235721.215200000,181204_180757330.jpg,6040531.411,2243284.772,105.820,0.360575544,-3.260911186,0.008979728,0.129205489,0.023310711,3.278200322,-2.290263243,-0.156821948,-83.690147322,179.592586540,-2.257005242,83.685246276
235722.251168000,181204_180758368.jpg,6040530.637,2243294.597,105.738,0.758288613,-3.191822371,0.030080246,0.107156576,0.056366876,3.278594112,-2.050802896,-0.525328050,-76.635859796,179.015045109,-1.871695777,76.629146580
235723.309135000,181204_180759428.jpg,6040528.342,2243304.494,105.615,1.315067813,-3.005099516,0.060058298,0.066292185,0.094573551,3.278796880,-1.725081169,-1.048915399,-66.365233056,178.347819055,-1.157792842,66.364281703
235724.390102000,181204_180800511.jpg,6040524.529,2243313.730,105.151,1.913112859,-2.661583563,-0.140095512,0.177903241,-0.044471690,3.275698032,-2.071849232,2.447366721,-54.291893839,-179.222185906,-3.108396073,54.268878078
235725.249076000,181204_180801372.jpg,6040517.699,2243322.658,105.395,2.446415730,-2.182726313,-0.120055065,0.101765671,-0.066147057,3.278583963,-0.322845329,2.097104935,-41.739788654,-178.844185643,-1.777501657,41.751903895
235725.919009000,181204_180802043.jpg,6040509.943,2243330.360,105.732,2.843139740,-1.636673465,-0.038748674,0.115246175,0.122822900,3.276502328,-2.865578739,0.676721369,-29.927186373,177.853215942,-2.013052733,29.872604501
235726.507991000,181204_180802633.jpg,6040501.059,2243335.943,105.783,3.103621923,-1.063351770,-0.021358127,0.098223014,0.221305402,3.271881879,-4.216978392,0.373000349,-18.912300848,176.130488296,-1.715605447,18.840689621
235727.054974000,181204_180803181.jpg,6040491.127,2243339.602,105.726,3.234435199,-0.548692260,-0.031793517,0.070290277,0.225437107,3.272320125,-4.090992934,0.555249684,-9.628043028,176.058997405,-1.227630248,9.566055732
235727.544959000,181204_180803672.jpg,6040481.041,2243341.663,105.695,3.275330595,-0.185812046,-0.036466624,0.048614747,0.216665964,3.273307156,-3.829118016,0.636865062,-3.246953706,176.213014600,-0.849029944,3.197673052
235728.011945000,181204_180804140.jpg,6040470.633,2243342.667,105.671,3.280447371,0.010962291,-0.046839917,0.045995772,0.192207872,3.274872431,-3.356208858,0.818038492,0.191464946,176.641064819,-0.803287727,-0.238915643
235728.453931000,181204_180804583.jpg,6040460.100,2243343.304,105.679,3.278008508,0.131115141,-0.033390122,0.025023055,0.205180235,3.274313429,-3.565436136,0.583134102,2.290519316,176.414328247,-0.437001879,-2.322277805
235728.872965000,181204_180805003.jpg,6040449.675,2243343.495,105.640,3.272060473,0.235172847,-0.044301249,0.029957443,0.198351591,3.274692630,-3.419752890,0.773699012,4.110951375,176.533767881,-0.523178394,-4.149811070
235729.268953000,181204_180805400.jpg,6040439.377,2243343.346,105.629,3.266870170,0.299212835,-0.040972924,0.024391401,0.180906871,3.275749148,-3.108949391,0.715568387,5.233123379,176.838987295,-0.425970729,-5.264235376
235729.641941000,181204_180805774.jpg,6040429.344,2243343.056,105.624,3.263228172,0.336927860,-0.038322795,0.020732381,0.170658258,3.276324457,-2.928767568,0.669283247,5.894893007,177.018252477,-0.362068817,-5.921369624
235730.040929000,181204_180806173.jpg,6040418.275,2243342.576,105.613,3.261394122,0.354282169,-0.037941840,0.021561183,0.151353980,3.277267710,-2.588054503,0.662629826,6.199676819,177.355788461,-0.376543002,-6.223285498
235730.395918000,181204_180806529.jpg,6040408.174,2243342.115,105.607,3.262208527,0.347227898,-0.032773519,0.018635381,0.133162772,3.278075414,-2.278703566,0.572365223,6.075659515,177.673795459,-0.325446407,-6.093606449
235730.770907000,181204_180806905.jpg,6040397.297,2243341.675,105.609,3.265150871,0.319193007,-0.023433487,0.011547252,0.121311461,3.278568343,-2.089450470,0.409245204,5.583351805,177.880944841,-0.201659244,-5.594504188
235731.124896000,181204_180807259.jpg,6040387.007,2243341.374,105.574,3.268169899,0.286201650,-0.028263447,0.018144041,0.115191744,3.278758987,-1.976885369,0.493598070,5.004764202,177.987869968,-0.316865572,-5.018806499
235731.478885000,181204_180807614.jpg,6040376.654,2243341.227,105.555,3.270080643,0.263360828,-0.029302875,0.019204929,0.124779084,3.278401979,-2.145798313,0.511751307,4.604463286,177.820319925,-0.335392885,-4.620385682
235731.832874000,181204_180807969.jpg,6040366.230,2243341.094,105.556,3.271189515,0.250444270,-0.015439025,0.006272276,0.118588649,3.278682506,-2.057189689,0.269627699,4.378059219,177.928536720,-0.109537910,-4.384841074
235732.166864000,181204_180808304.jpg,6040356.467,2243341.036,105.515,3.271387070,0.247341175,-0.022185281,0.012646810,0.125161692,3.278419494,-2.163588218,0.387446041,4.323760367,177.813654468,-0.220861989,-4.335249133
235732.500854000,181204_180808638.jpg,6040346.801,2243340.959,105.512,3.270971270,0.253277513,-0.015460348,0.005837229,0.123151932,3.278515068,-2.137050983,0.270000075,4.427686017,177.848790593,-0.101940362,-4.434595046
235732.834843000,181204_180808973.jpg,6040337.426,2243340.867,105.492,3.269814621,0.267940421,-0.012696417,0.002632248,0.121733427,3.278572312,-2.115686387,0.221730434,4.684556626,177.873583169,-0.045969058,-4.689463828
235733.168833000,181204_180809308.jpg,6040328.455,2243340.761,105.479,3.267796217,0.291461914,-0.014110151,0.002245272,0.132148801,3.278169266,-2.295945806,0.246420034,5.096849273,177.691554837,-0.039210993,-5.102533592
235733.526822000,181204_180809666.jpg,6040319.372,2243340.561,105.469,3.262768563,0.343244378,-0.012867857,-0.001143259,0.132590117,3.278152132,-2.305616632,0.224724467,6.005446444,177.683842261,0.019965784,-6.009521482
235733.906811000,181204_180810047.jpg,6040310.410,2243340.260,105.474,3.248190921,0.461035276,-0.018564053,-0.003473488,0.155556295,3.277140932,-2.699181846,0.324203807,8.078374504,177.282375874,0.060660393,-8.084523087
235734.313798000,181204_180810455.jpg,6040301.538,2243339.461,105.489,3.212776526,0.664557500,-0.008375674,-0.020139839,0.138073905,3.277864731,-2.433159072,0.146272706,11.686720360,177.587947723,0.351720223,-11.682377390
235734.761831000,181204_180810904.jpg,6040292.782,2243338.039,105.493,3.142063795,0.943961411,-0.003242439,-0.031229628,0.114792329,3.278676292,-2.076998544,0.056625876,16.721697044,177.994790603,0.545396048,-16.713140795
235735.252863000,181204_180811396.jpg,6040284.543,2243335.754,105.498,3.017413449,1.287821292,0.019119903,-0.043182384,0.052179002,3.280135463,-1.133643304,-0.333911469,23.112616491,179.088639604,0.754149513,-23.103289691
235735.850844000,181204_180811995.jpg,6040276.554,2243332.183,105.452,2.850241691,1.623105895,0.072601090,-0.028684892,-0.096536099,3.279288837,1.218011725,-1.268008076,29.659892492,-178.313806028,0.500953326,-29.680737571
235736.593821000,181204_180812739.jpg,6040268.457,2243328.167,105.279,2.623536143,1.968167633,0.083632466,-0.072381712,-0.043056577,3.279755057,-0.156029985,-1.460714703,36.877102505,-179.247864660,1.264160784,-36.883368874
235737.436796000,181204_180813584.jpg,6040260.572,2243322.802,104.837,2.212933293,2.421547244,-0.051801365,-0.038426826,0.105129814,3.278924218,-1.732821375,0.904694893,47.577340824,178.163594783,0.671093242,-47.580273921
235738.299723000,181204_180814449.jpg,6040253.729,2243315.929,104.767,1.676533205,2.816929609,-0.133428469,-0.062730012,0.192349028,3.274590368,-2.658680361,2.330831934,59.240443626,176.638314751,1.095570431,-59.262458587
235739.118697000,181204_180815269.jpg,6040248.426,2243307.308,105.102,1.177486604,3.061152915,-0.080720801,-0.102395224,0.125729837,3.276826928,-2.456180359,1.409847649,68.960530789,177.802673398,1.788497843,-68.956500085
235739.846675000,181204_180815999.jpg,6040244.507,2243298.077,105.240,0.730473090,3.197816402,-0.063424718,-0.144033887,0.097835581,3.276214412,-2.831877307,1.107716400,77.132769602,178.289518801,2.516183220,-77.122621777
235740.510655000,181204_180816664.jpg,6040241.884,2243288.235,105.355,0.445334441,3.250223537,-0.036935224,-0.144526320,0.057010001,3.277157617,-2.634656695,0.645049386,82.198110490,179.003372939,2.524790975,-82.191002320
235741.109636000,181204_180817264.jpg,6040239.970,2243278.094,105.352,0.349049866,3.262046979,-0.029205164,-0.130073783,0.043236112,3.277973242,-2.337614414,0.510044956,83.892400539,179.244318464,2.272174240,-83.887837500
235741.665619000,181204_180817821.jpg,6040238.003,2243267.857,105.326,0.378677294,3.258725320,-0.030856325,-0.173260188,0.051121038,3.275862420,-3.108085553,0.538881992,83.371722691,179.105950514,3.027182844,-83.362732908
235742.177604000,181204_180818334.jpg,6040236.110,2243258.172,105.292,0.443762559,3.250480616,-0.033017397,-0.181006065,0.057947557,3.275330133,-3.268629938,0.576624667,82.225918550,178.986421344,3.162652342,-82.214403327
235742.689541000,181204_180818847.jpg,6040233.955,2243248.469,105.255,0.517299962,3.239475734,-0.042873194,-0.195066766,0.074445494,3.274189692,-3.569290694,0.748757598,80.927247803,178.697485624,3.408609011,-80.911840738
235743.201526000,181204_180819360.jpg,6040231.664,2243238.901,105.312,0.579375098,3.229002110,-0.038859086,-0.197018459,0.074713236,3.274066803,-3.617442451,0.678649898,79.827744741,178.692753730,3.442753886,-79.809902489
235743.713510000,181204_180819873.jpg,6040229.338,2243229.785,105.323,0.536995662,3.235771114,-0.071157422,-0.200024112,0.105134376,3.273048794,-3.747302403,1.242788614,80.577299519,178.160220766,3.495340554,-80.561860820
235744.249447000,181204_180820410.jpg,6040227.367,2243220.547,105.454,0.341105152,3.262455797,-0.060579805,-0.167397560,0.078296332,3.275630075,-3.049123562,1.058024181,84.031142679,178.630737770,2.924661363,-84.024389805
235744.805430000,181204_180820968.jpg,6040225.759,2243211.401,105.607,-0.109230902,3.278615209,-0.048875856,-0.260507435,0.040058555,3.270238349,-4.526256174,0.853598295,91.908170144,179.298194242,4.554229510,-91.914035579
235745.404412000,181204_180821568.jpg,6040226.061,2243202.075,105.708,-0.740138208,3.196039994,-0.034051884,-0.193220020,-0.009840192,3.275130987,-3.325895874,0.594691970,103.038701348,-179.827854261,3.376301043,-103.061078758
235746.050392000,181204_180822215.jpg,6040228.106,2243192.984,105.737,-1.482017189,2.926628419,-0.045867774,-0.180285959,-0.039913335,3.275639727,-3.123321258,0.801059926,116.857226359,-179.301891067,3.150057157,-116.898322857
235746.742371000,181204_180822908.jpg,6040232.368,2243184.508,105.819,-2.162917081,2.466728226,-0.025965214,-0.151055940,-0.097879127,3.275898093,-3.110216618,0.453460687,131.245463228,-178.288593268,2.638938061,-131.297249094
235747.456349000,181204_180823624.jpg,6040238.253,2243177.543,105.906,-2.730399131,1.818874461,0.015975368,-0.109026101,-0.192247967,3.273385561,-3.851284121,-0.278994509,146.330154300,-176.638843115,1.904357137,-146.376697536
235748.281370000,181204_180824450.jpg,6040245.632,2243172.926,105.862,-3.170660267,0.842755292,0.017803876,-0.034888565,-0.199994506,3.274548280,-3.533426213,-0.310927935,165.115057232,-176.504974823,0.609298020,-165.124110841
235749.391336000,181204_180825563.jpg,6040253.418,2243171.207,105.807,-3.276433922,-0.161914284,0.049117602,0.055752558,-0.136432936,3.277519720,-2.428356757,-0.857820196,-177.170867919,-177.616330683,-0.973698403,177.209265488
235646.733811000,181204_180642698.jpg,6040798.318,2243134.271,107.300,-0.139307827,-3.277712864,-0.028718466,0.061542411,-0.031376220,3.280103862,-1.099251672,0.501545075,-92.433693869,-179.451947018,-1.074827789,92.434047494
235649.376777000,181204_180645347.jpg,6040798.942,2243139.039,106.682,-0.061914651,-3.272754505,-0.221071043,0.070429210,-0.222402242,3.272527049,-1.305455831,3.863708537,-91.083804194,-176.112133165,-1.230056282,91.081732950
235650.459790000,181204_180646432.jpg,6040799.458,2243149.133,107.271,0.115516020,-3.276279457,-0.127596087,0.014895433,-0.127160452,3.278334316,-0.183856833,2.228897592,-87.980685128,-177.778716917,-0.260131707,87.982276141
235651.324763000,181204_180647299.jpg,6040799.616,2243159.719,107.592,0.312703411,-3.265030646,-0.073655614,0.024527865,-0.071646615,3.279958651,-0.309257775,1.286428108,-84.529268843,-178.748643837,-0.428353521,84.530546848
235652.043695000,181204_180648019.jpg,6040799.189,2243170.611,107.727,0.441338418,-3.250705825,-0.042026522,0.030698871,-0.038242559,3.280465845,-0.443548926,0.733970310,-82.268400105,-179.332095071,-0.536126705,82.268725426
235652.660629000,181204_180648637.jpg,6040798.378,2243181.272,107.761,0.484957890,-3.244717414,-0.016093539,0.020069516,-0.013270713,3.280744431,-0.314529973,0.281058328,-81.499453797,-179.768237946,-0.350492307,81.499406932
235653.202519000,181204_180649180.jpg,6040797.547,2243191.783,107.721,0.477962183,-3.245791599,0.004833747,0.022765163,0.008239279,3.280743122,-0.416438556,-0.084416485,-81.623057770,179.856107490,-0.397569313,81.622860579
235653.736457000,181204_180649715.jpg,6040796.710,2243202.863,107.585,0.447111271,-3.250188197,-0.001671725,0.029080704,0.002313166,3.280702541,-0.510782343,0.029194961,-82.167283418,179.959601528,-0.507866082,82.166975811
235654.201396000,181204_180650181.jpg,6040796.062,2243212.824,107.481,0.404180541,-3.255798647,-0.006927906,0.029363521,-0.003337083,3.280699155,-0.503868017,0.120988880,-82.923406349,-179.941719681,-0.512805473,82.923141935
235654.666335000,181204_180650647.jpg,6040795.644,2243222.953,107.428,0.339378959,-3.263195088,-0.003816186,0.061028419,0.002506972,3.280262423,-1.066814489,0.066645802,-84.062468035,179.956211138,-1.065850012,84.061443262
235655.131274000,181204_180651113.jpg,6040795.142,2243233.071,107.370,0.262896894,-3.270059395,0.035104340,-0.015637041,0.033952872,3.280620785,0.222549185,-0.613073070,-85.403583365,179.407036810,0.273082978,85.403771503
235655.596260000,181204_180651579.jpg,6040795.337,2243242.511,107.275,0.179792627,-3.275806600,0.020033632,0.081224239,0.024505169,3.279733020,-1.442108830,-0.349869045,-86.858473407,179.571911115,-1.418629803,86.857554500
235656.085245000,181204_180652069.jpg,6040795.530,2243251.653,107.214,0.067995538,-3.280048806,0.017095879,0.068035976,0.018491801,3.280073052,-1.196833538,-0.298563370,-88.812426379,179.676991482,-1.188252453,88.812175821
235656.578229000,181204_180652563.jpg,6040796.024,2243260.023,107.133,-0.038421561,-3.280537511,0.015279094,0.069339805,0.014446280,3.280066027,-1.210122010,-0.266834705,-90.671015842,179.747655804,-1.211027399,90.671148552
235657.198210000,181204_180653184.jpg,6040796.955,2243269.118,107.083,-0.123925427,-3.278444429,0.008979740,0.105276033,0.004980619,3.279136081,-1.836366330,-0.156822156,-92.164753802,179.912974479,-1.838836944,92.165855785
235657.982186000,181204_180653969.jpg,6040798.000,2243278.046,107.018,-0.131341896,-3.278151023,0.010558216,0.121422437,0.005672801,3.278576167,-2.117444747,-0.184388740,-92.294376738,179.900863048,-2.120983788,92.295931683
235659.297099000,181204_180655287.jpg,6040798.832,2243288.166,106.967,0.156615558,-3.276612964,0.054001390,0.101959207,0.058897399,3.278715558,-1.830137370,-0.943121524,-87.263458871,178.970874335,-1.780883548,87.262471049
235660.730055000,181204_180656723.jpg,6040798.366,2243297.821,106.742,0.868838508,-3.163470034,-0.034848319,0.090441861,-0.011270194,3.279563806,-1.473235876,0.608601621,-74.642537794,-179.803104295,-1.579659790,74.637464834
235661.903019000,181204_180657898.jpg,6040795.447,2243307.087,106.470,1.882938535,-2.682946606,-0.141396664,0.123342240,-0.086088643,3.277379309,-0.901427599,2.470111104,-54.938155079,-178.495327354,-2.154533949,54.947147965
235662.793992000,181204_180658791.jpg,6040789.245,2243315.496,106.862,2.684625118,-1.884757092,-0.064238873,0.096551158,0.025915304,3.279306179,-1.340848609,1.121937230,-35.071003204,179.547219172,-1.686394957,35.051271910
235663.522970000,181204_180659521.jpg,6040780.708,2243321.380,106.932,3.072828500,-1.148838838,-0.039230956,0.072265905,0.081629222,3.279018316,-1.778561384,0.685144530,-20.499269389,178.573949269,-1.262140207,20.472973803
235664.166950000,181204_180700167.jpg,6040770.747,2243325.390,106.957,3.209785311,-0.678358132,-0.027405830,0.051911940,0.113742787,3.278447548,-2.132142908,0.478620183,-11.933328732,178.012971004,-0.906617955,11.908746140
235664.723933000,181204_180700725.jpg,6040760.617,2243327.985,106.918,3.256170071,-0.400371913,-0.026483737,0.041314465,0.120124154,3.278370972,-2.171280559,0.462516241,-7.009785264,177.901539731,-0.721526908,6.987851865
235665.239917000,181204_180701242.jpg,6040750.077,2243329.902,106.860,3.275099023,-0.188676869,-0.042118740,0.050202474,0.141918951,3.277375264,-2.526017304,0.735580521,-3.297137772,177.520490683,-0.876760754,3.262000288
235665.716902000,181204_180701720.jpg,6040739.383,2243331.039,106.847,3.280361678,-0.021518272,-0.049118813,0.049791160,0.126522741,3.278012126,-2.216099139,0.857841329,-0.375839199,177.789628189,-0.869576641,0.342519409
235666.148936000,181204_180702153.jpg,6040728.995,2243331.729,106.869,3.279533215,0.082631567,-0.038467047,0.034968439,0.133241386,3.277938062,-2.311663622,0.671802684,1.443326904,177.672326166,-0.610693650,-1.469240400
235666.557970000,181204_180702562.jpg,6040718.677,2243332.131,106.869,3.277360362,0.146668542,-0.032274847,0.025948969,0.138703154,3.277795612,-2.400519447,0.563656028,2.562392976,177.576917548,-0.453172379,-2.583738366
235666.967004000,181204_180702972.jpg,6040707.948,2243332.327,106.851,3.275525783,0.182804582,-0.034030522,0.026760183,0.128563019,3.278202499,-2.216411547,0.594318641,3.194319842,177.754151284,-0.467339752,-3.214932692
235667.352992000,181204_180703359.jpg,6040697.430,2243332.487,106.831,3.274323398,0.204568177,-0.024506505,0.015223376,0.146997698,3.277501820,-2.546582427,0.427984878,3.574991622,177.431974047,-0.265858876,-3.590413788
235667.717981000,181204_180703725.jpg,6040687.318,2243332.532,106.827,3.273998437,0.210715291,-0.013150497,0.003773075,0.144022910,3.277667519,-2.506736048,0.229660535,3.682490534,177.484002577,-0.065892210,-3.688914418
235668.083016000,181204_180704091.jpg,6040677.128,2243332.617,106.743,3.274338391,0.205216766,-0.015311563,0.005404544,0.156318344,3.277101725,-2.719864000,0.267401692,3.586280315,177.269050000,-0.094383888,-3.594826063
235668.448005000,181204_180704456.jpg,6040666.821,2243332.588,106.683,3.275156884,0.192056250,-0.010037424,0.002502595,0.126569343,3.278389255,-2.204759940,0.175293579,3.355999658,177.789069377,-0.043704822,-3.360173989
235668.812947000,181204_180704822.jpg,6040656.442,2243332.742,106.613,3.276141079,0.174735314,0.001836721,-0.009573724,0.142752851,3.277711769,-2.499363958,-0.032076446,3.053018358,177.506195387,0.167193720,-3.048633049
235669.157937000,181204_180705168.jpg,6040646.652,2243332.868,106.528,3.277152927,0.154507939,-0.005843028,-0.000406624,0.130003016,3.278255911,-2.268963620,0.102042550,2.699325415,177.729059024,0.007101340,-2.701162557
235669.502879000,181204_180705513.jpg,6040636.871,2243333.063,106.458,3.278044596,0.134374937,-0.002075338,-0.002953256,0.119699815,3.278647135,-2.091456247,0.036243656,2.347377654,177.909121784,0.051575062,-2.347059015
235669.847869000,181204_180705859.jpg,6040627.162,2243333.270,106.406,3.278516921,0.120686318,0.019838844,-0.023483901,0.095576749,3.279357140,-1.683557296,-0.346467279,2.108177572,178.330588521,0.410121489,-2.097082494
235670.192812000,181204_180706205.jpg,6040617.719,2243333.582,106.317,3.278387100,0.123125621,0.025471166,-0.029511446,0.104205658,3.279045761,-1.838427162,-0.444832410,2.150833367,178.179794339,0.515388668,-2.135477340
235670.537801000,181204_180706550.jpg,6040608.616,2243333.812,106.201,3.277013297,0.156549688,0.017571639,-0.022227985,0.094651570,3.279392695,-1.670053955,-0.306872204,2.735058270,178.346757401,0.388187727,-2.724955188
235670.903790000,181204_180706917.jpg,6040599.402,2243334.029,106.123,3.271314662,0.249197694,0.006043240,-0.015272324,0.119367431,3.278625472,-2.099460256,-0.105539067,4.356185688,177.914908745,0.266713721,-4.349359466
235671.290778000,181204_180707305.jpg,6040590.152,2243333.851,106.052,3.255523332,0.406209010,0.013994600,-0.028032312,0.110712992,3.278845383,-1.979640340,-0.244402129,7.112341605,178.066093772,0.489556508,-7.099819438
235671.700765000,181204_180707716.jpg,6040581.011,2243333.152,105.988,3.215450897,0.651520265,0.005718975,-0.026056480,0.099196567,3.279230287,-1.788378843,-0.099876093,11.454296699,178.267333171,0.455049672,-11.445822985
235672.130752000,181204_180708146.jpg,6040572.123,2243331.669,105.943,3.137093259,0.960087553,0.022574082,-0.041689788,0.058687741,3.280044690,-1.192854861,-0.394236415,17.016398876,178.974952401,0.728081222,-17.005756189
235672.606738000,181204_180708623.jpg,6040563.322,2243329.064,105.887,2.992097241,1.344018719,0.067743750,-0.060925819,-0.029979736,3.280132977,0.042229540,-1.183160126,24.189116415,-179.476342852,1.064056118,-24.194396944
235673.108722000,181204_180709126.jpg,6040555.131,2243325.723,105.695,2.796416588,1.714332676,0.068846315,-0.064382660,-0.026916957,3.280093628,-0.186025666,-1.202419441,31.510222886,-179.529832435,1.124436871,-31.512854293
235673.662659000,181204_180709681.jpg,6040546.932,2243321.461,105.357,2.535759782,2.081641989,-0.018181808,-0.064888165,0.107513716,3.278430964,-2.169661186,0.317528212,39.383069200,178.121700014,1.133266610,-39.370478358
235674.236641000,181204_180710257.jpg,6040539.342,2243316.023,105.195,2.130023147,2.492598656,-0.116674772,-0.078474006,0.220116602,3.272501868,-3.540022864,2.038032955,49.484814641,176.151938710,1.370583849,-49.501781348
235674.832623000,181204_180710854.jpg,6040533.097,2243308.747,105.486,1.645113685,2.837345645,-0.081980372,-0.082292750,0.142300261,3.276714914,-2.488900583,1.431851360,59.894529703,177.513336307,1.437293321,-59.894473396
235675.428558000,181204_180711451.jpg,6040527.983,2243300.514,105.664,1.125668473,3.080757103,-0.073838838,-0.127591580,0.125075430,3.275968570,-2.841832262,1.289628005,69.928355617,177.813526844,2.228792399,-69.917846798
235676.024539000,181204_180712048.jpg,6040524.226,2243290.605,105.790,0.661696441,3.212721432,-0.064972472,-0.108790646,0.088653091,3.277833990,-2.171672384,1.134751534,78.362023971,178.450741446,1.900243664,-78.357883335
235676.551523000,181204_180712576.jpg,6040521.645,2243280.530,105.937,0.428045873,3.252651478,-0.025955382,-0.135089332,0.043900496,3.277761733,-2.437724371,0.453288846,82.503009683,179.232658105,2.359836067,-82.496861579
235677.056508000,181204_180713082.jpg,6040519.658,2243270.481,105.900,0.350441111,3.261831257,-0.035873669,-0.150198804,0.052147058,3.276983767,-2.704261179,0.626509296,83.867839483,179.088321845,2.623953896,-83.861769035
235677.541493000,181204_180713568.jpg,6040517.830,2243260.700,105.906,0.398307072,3.256294627,-0.039193056,-0.166935105,0.059818078,3.276043312,-3.019941130,0.684482776,83.026273571,178.953938316,2.916574465,-83.017708141
235678.026478000,181204_180714054.jpg,6040515.732,2243250.939,105.910,0.519820186,3.239102251,-0.040537174,-0.199693153,0.072983846,3.273943872,-3.645748404,0.707958138,80.882753407,178.722954607,3.489549820,-80.866400420
235678.511463000,181204_180714540.jpg,6040513.405,2243241.347,105.891,0.653988197,3.214358431,-0.061976665,-0.184020490,0.100527281,3.274131719,-3.499379713,1.082423099,78.499664816,178.241371491,3.215377300,-78.483402842
235678.996448000,181204_180715026.jpg,6040510.655,2243232.084,105.968,0.732061645,3.196734285,-0.092846054,-0.193660187,0.139339081,3.272153560,-3.840802644,1.621677135,77.101502792,177.561629403,3.384002228,-77.083899797
235679.481433000,181204_180715512.jpg,6040507.774,2243222.898,106.161,0.629598080,3.219418007,-0.050933996,-0.249229129,0.100430194,3.269819811,-4.611185102,0.889545646,78.934734939,178.240753529,4.356671845,-78.903646218
235679.988418000,181204_180716020.jpg,6040505.501,2243213.689,106.222,0.323418795,3.264175088,-0.064816159,-0.231221496,0.087841679,3.271504201,-4.171225144,1.132021300,84.341526597,178.461946224,4.041345168,-84.328526466
235680.517402000,181204_180716550.jpg,6040504.138,2243204.206,106.395,-0.186985436,3.275346596,-0.027882888,-0.272383689,0.012273132,3.269493524,-4.740223913,0.486951954,93.267397769,179.784922146,4.762320253,-93.278629084
235681.070385000,181204_180717104.jpg,6040504.453,2243194.845,106.427,-0.894677515,3.156269514,-0.033903603,-0.283053624,-0.045110117,3.268299468,-4.974842058,0.592102289,105.825934700,-179.209235165,4.949327468,-105.885877691
235681.666366000,181204_180717701.jpg,6040507.106,2243185.877,106.473,-1.726466584,2.789574601,-0.034910191,-0.227822113,-0.100001039,3.271394424,-4.304322925,0.609682359,121.753348124,-178.249108897,3.981832336,-121.837193003
