Timestamp,Filename,Origin (Easting[ftUS],Northing[ftUS],Height[ftUS]),Direction (Easting,Northing,Height),Up (Easting,Northing,Height),Roll(X)[deg],Pitch(Y)[deg],Yaw(Z)[deg],Omega[deg],Phi[deg],Kappa[deg]
246827.502913000,181204_211313058.jpg,6042651.241,2250037.978,122.378,-0.193853050,3.274972128,-0.025668919,-0.170032579,0.015594864,3.276393329,-2.947294343,0.448285041,93.387514914,179.727287522,2.970739385,-93.391991791
246827.783044000,181204_211313338.jpg,6042651.124,2250027.801,122.331,-0.198488474,3.274608277,-0.034980524,-0.171401852,0.024588242,3.276266814,-2.961041495,0.610909340,93.468706332,179.570005365,2.994684428,-93.473280911
246828.063129000,181204_211313619.jpg,6042651.047,2250017.475,122.306,-0.202704820,3.274355474,-0.034462241,-0.164729173,0.024267746,3.276611237,-2.844140634,0.601857570,93.542476656,179.575654857,2.878001319,-93.546782984
246828.343214000,181204_211313900.jpg,6042650.942,2250007.033,122.285,-0.205923131,3.274102051,-0.039143172,-0.165215041,0.028760999,3.276550390,-2.847094189,0.683610219,93.598851135,179.497080353,2.886497060,-93.603198216
246828.623159000,181204_211314180.jpg,6042650.817,2249996.422,122.288,-0.210276105,3.273960407,-0.025441111,-0.174473273,0.014232500,3.276166237,-3.024033743,0.444306506,93.674878878,179.751094043,3.048397409,-93.679999570
246828.903151000,181204_211314461.jpg,6042650.731,2249985.730,122.238,-0.213275385,3.273703093,-0.032588151,-0.175398207,0.021165056,3.276079368,-3.031884488,0.569126885,93.727441058,179.629846624,3.064573157,-93.732623937
246829.163143000,181204_211314721.jpg,6042650.675,2249975.705,122.190,-0.218355928,3.273161900,-0.049120498,-0.173504051,0.037568947,3.276032974,-2.978848444,0.857869470,93.816604121,179.342971056,3.031447549,-93.821563995
246829.423136000,181204_211314982.jpg,6042650.604,2249965.505,122.193,-0.229823691,3.272400063,-0.047535334,-0.181314219,0.034829022,3.275640591,-3.115435646,0.830183268,94.017339370,179.390811931,3.168041977,-94.023106984
246829.683128000,181204_211315242.jpg,6042650.571,2249955.177,122.205,-0.241925680,3.271493884,-0.049803548,-0.185847768,0.036100140,3.275372894,-3.189781484,0.869799587,94.229302091,179.368529233,3.247339005,-94.235660620
246829.943120000,181204_211315503.jpg,6042650.570,2249944.695,122.220,-0.260918934,3.270090639,-0.045922265,-0.195091144,0.030405194,3.274893537,-3.353778740,0.802009891,94.561937637,179.468062188,3.409035433,-94.569623517
246830.203159000,181204_211315763.jpg,6042650.664,2249934.045,122.222,-0.288230782,3.267947650,-0.033479209,-0.199187504,0.015963685,3.274749446,-3.440549430,0.584689063,95.040406201,179.720697611,3.480702569,-95.049504229
246830.463198000,181204_211316024.jpg,6042650.869,2249923.316,122.178,-0.316596676,3.265196139,-0.044053538,-0.199568838,0.024814862,3.274671058,-3.427035858,0.769371495,95.538143751,179.565831385,3.487374386,-95.547978234
246830.717144000,181204_211316278.jpg,6042651.170,2249912.682,122.174,-0.347892183,3.262043713,-0.041491241,-0.194680625,0.020878678,3.274992616,-3.341770142,0.724619894,96.087500968,179.634733910,3.401853349,-96.097825643
246830.957090000,181204_211316519.jpg,6042651.542,2249902.538,122.165,-0.369368873,3.259676666,-0.041882551,-0.197784856,0.019651107,3.274814338,-3.393303553,0.731454269,96.464870893,179.656190533,3.456161948,-96.476198801
246831.197036000,181204_211316759.jpg,6042651.994,2249892.308,122.151,-0.383479435,3.257984659,-0.046464880,-0.192178526,0.024075389,3.275118338,-3.283652980,0.811487056,96.713082641,179.578826383,3.358081417,-96.724036061
246831.436982000,181204_211317000.jpg,6042652.496,2249881.952,122.153,-0.394771651,3.256694662,-0.042125020,-0.184809018,0.019953860,3.275569919,-3.161529347,0.735689074,96.911587469,179.650974373,3.229169302,-96.922087593
246831.676975000,181204_211317240.jpg,6042653.024,2249871.507,122.156,-0.395508359,3.256668571,-0.036905323,-0.187424341,0.014343400,3.275450831,-3.218606702,0.644525988,96.924415438,179.749099733,3.274916194,-96.935381357
246831.916922000,181204_211317481.jpg,6042653.596,2249861.076,122.152,-0.383728698,3.258116786,-0.033258933,-0.169560309,0.013462425,3.276427269,-2.912439222,0.580842010,96.717136380,179.764580002,2.962480593,-96.725841802
246832.156914000,181204_211317721.jpg,6042654.110,2249850.678,122.138,-0.364284561,3.260276075,-0.039695293,-0.160758966,0.021920401,3.276824845,-2.746486332,0.693253176,96.375458176,179.616723941,2.808581250,-96.382714858
246832.396907000,181204_211317962.jpg,6042654.550,2249840.229,122.141,-0.339030154,3.263147471,-0.024611068,-0.153446251,0.008760046,3.277236867,-2.648385619,0.429810291,95.931558980,179.846848909,2.680727063,-95.937929238
246832.636900000,181204_211318202.jpg,6042654.881,2249829.816,122.104,-0.307858209,3.266215251,-0.027201071,-0.154746660,0.012690603,3.277162876,-2.668554512,0.475043355,95.384524937,179.778126817,2.703462314,-95.390374485
246832.876893000,181204_211318442.jpg,6042655.156,2249819.407,122.076,-0.272439684,3.269362069,-0.026962756,-0.138179450,0.015501199,3.277890501,-2.380855196,0.470881293,94.763517159,179.729049404,2.413847703,-94.767613927
246833.116886000,181204_211318683.jpg,6042655.274,2249809.043,122.052,-0.235463908,3.272068986,-0.042432882,-0.142839503,0.032206306,3.277569194,-2.446311211,0.741066012,94.116011137,179.437013703,2.495304471,-94.119607485
246833.356879000,181204_211318923.jpg,6042655.300,2249798.604,122.080,-0.195193127,3.274966372,-0.013149760,-0.140864762,0.004745561,3.277809607,-2.449347231,0.229647264,93.410883166,179.917047886,2.460785645,-93.414016195
246833.596918000,181204_211319164.jpg,6042655.190,2249788.288,122.018,-0.158017885,3.276966903,-0.014012795,-0.140767115,0.007207260,3.277809288,-2.448018116,0.244719376,92.760708466,179.874018147,2.459079000,-92.763239144
246833.836911000,181204_211319404.jpg,6042654.968,2249778.063,121.962,-0.119817690,3.278520482,-0.025015644,-0.140037860,0.019869329,3.277788096,-2.429881239,0.436875976,92.093015446,179.652687729,2.446331695,-92.094880892
246834.076904000,181204_211319645.jpg,6042654.645,2249767.864,121.958,-0.082117689,3.279729406,-0.017604853,-0.127664293,0.014376740,3.278321617,-2.220943812,0.307451599,91.434268989,179.748736814,2.230062632,-91.435347089
246834.316897000,181204_211319885.jpg,6042654.162,2249757.793,121.925,-0.043156272,3.280496648,-0.012539148,-0.130751263,0.010784901,3.278213882,-2.279212514,0.218983497,90.753705877,179.811505031,2.284014800,-90.754307834
246834.556890000,181204_211320126.jpg,6042653.563,2249747.908,121.885,-0.010418686,3.280761088,-0.013270186,-0.134527348,0.012805358,3.278053947,-2.347170930,0.231750388,90.181953125,179.776181227,2.350013177,-90.182113287
246834.796883000,181204_211320366.jpg,6042652.849,2249738.201,121.859,0.022954990,3.280696391,-0.013498292,-0.150236497,0.014507897,3.277365011,-2.624211582,0.235734048,89.599108715,179.746370431,2.624612825,-89.598699805
246835.036875000,181204_211320607.jpg,6042652.044,2249728.674,121.839,0.049898507,3.280410126,-0.009863277,-0.162754274,0.012299228,3.276776738,-2.844305849,0.172251966,89.128537811,179.784943994,2.843468866,-89.127473640
246835.276868000,181204_211320847.jpg,6042651.161,2249719.341,121.808,0.066780880,3.280121970,-0.004183690,-0.181892155,0.007852056,3.275784546,-3.178188684,0.073063744,88.833661039,179.862662124,3.178150158,-88.831867740
246835.516861000,181204_211321088.jpg,6042650.255,2249710.236,121.747,0.067623930,3.280100869,-0.006534840,-0.199855081,0.010615096,3.274730553,-3.493373964,0.114124154,88.818933583,179.814275280,3.492382535,-88.816742399
246835.756854000,181204_211321328.jpg,6042649.432,2249701.337,121.704,0.060165888,3.280239164,-0.009415948,-0.196230124,0.012970867,3.274941130,-3.430450048,0.164439799,88.949203165,179.773073058,3.428961547,-88.947328808
246835.996847000,181204_211321569.jpg,6042648.664,2249692.642,121.687,0.049259261,3.280434489,-0.000043498,-0.189986606,0.002867778,3.275333551,-3.318016824,0.000759638,89.139706744,179.949833472,3.319736929,-89.138260468
246836.256839000,181204_211321829.jpg,6042647.814,2249683.522,121.640,0.034604604,3.280615655,0.006328405,-0.212726076,-0.004099423,3.273934874,-3.714544004,-0.110518977,89.395654822,-179.928257405,3.717603534,-89.394377365
246836.516831000,181204_211322090.jpg,6042647.084,2249674.735,121.569,0.022948914,3.280723975,0.000662363,-0.201435670,0.000720450,3.274650964,-3.517938959,-0.011567468,89.599218193,179.987394449,3.520037170,-89.598460388
246836.776824000,181204_211322350.jpg,6042646.380,2249666.268,121.486,0.008887955,3.280772039,-0.011549334,-0.209804275,0.012067068,3.274103500,-3.664930265,0.201697320,89.844780114,179.788830965,3.666471922,-89.844470131
246837.058815000,181204_211322633.jpg,6042645.678,2249657.404,121.448,-0.010598426,3.280722110,-0.020691215,-0.219289151,0.019910291,3.273443880,-3.829221828,0.361352584,90.185094297,179.651510117,3.832468714,-90.185518849
246837.361806000,181204_211322936.jpg,6042645.013,2249648.227,121.457,-0.036502658,3.280592264,-0.007692210,-0.226966150,0.005123575,3.272977500,-3.963501929,0.134336446,90.637495243,179.910308121,3.966848304,-90.639029219
246837.664797000,181204_211323240.jpg,6042644.489,2249639.540,121.442,-0.064135266,3.280168393,-0.007686331,-0.220464194,0.003335586,3.273423982,-3.849048963,0.134233775,91.120129054,179.941616056,3.853035431,-91.122668867
246837.990788000,181204_211323567.jpg,6042644.039,2249630.714,121.429,-0.100527778,3.279260816,0.004377082,-0.220660723,-0.011156449,3.273393553,-3.858532970,-0.076441137,91.755887825,-179.804723915,3.856475042,-91.759869519
246838.339777000,181204_211323916.jpg,6042643.725,2249621.956,121.390,-0.138643066,3.277868948,0.005442950,-0.213819599,-0.014501375,3.273834205,-3.742004683,-0.095055419,92.421979239,-179.746211307,3.736740836,-92.427135319
246838.710766000,181204_211324288.jpg,6042643.517,2249613.430,121.350,-0.176164662,3.276059745,0.008647827,-0.205748019,-0.019726768,3.274323827,-3.606708721,-0.151025334,93.078020733,-179.654815131,3.595491857,-93.084080582
246839.127754000,181204_211324706.jpg,6042643.407,2249604.932,121.325,-0.206100255,3.274301778,0.012108835,-0.196382396,-0.024490740,3.274866430,-3.449626387,-0.211468485,93.601719402,-179.571527661,3.431625131,-93.608164697
246839.577694000,181204_211325157.jpg,6042643.370,2249597.274,121.294,-0.227804700,3.272834378,0.018328768,-0.178100392,-0.030759956,3.275858061,-3.139533721,-0.320094241,93.981634520,-179.462014816,3.111831719,-93.987448848
246840.263627000,181204_211325844.jpg,6042643.360,2249588.935,121.263,-0.237096950,3.272204140,0.011880337,-0.180730565,-0.025005990,3.275763036,-3.179039627,-0.207477993,94.144287712,-179.562632911,3.157833337,-94.150566047
248516.192434000,181204_214125147.jpg,6037526.141,2240193.100,94.442,3.271836695,0.236412091,-0.053188154,0.044902978,0.114476110,3.278525785,-1.938003349,0.928917391,4.132820863,178.000217934,-0.784201444,-4.162180178
248517.104407000,181204_214126061.jpg,6037514.569,2240193.015,94.487,3.271368862,0.246140398,-0.034512167,0.025816145,0.114985899,3.278714497,-1.969144957,0.602730938,4.302872520,177.991435336,-0.450852883,-4.321095656
248517.742388000,181204_214126700.jpg,6037504.059,2240192.913,94.459,3.270900839,0.251377731,-0.040606284,0.033006331,0.098639522,3.279182329,-1.673771785,0.709165417,4.394699708,178.277031858,-0.576425795,-4.413693106
248518.316371000,181204_214127275.jpg,6037493.170,2240192.807,94.457,3.270898405,0.250727352,-0.044636099,0.037273449,0.095938196,3.279216598,-1.621156592,0.779547923,4.383377110,178.324207043,-0.650950009,-4.403893834
248518.816356000,181204_214127776.jpg,6037482.454,2240192.673,94.454,3.271581553,0.244099030,-0.028261779,0.021977747,0.083530567,3.279694910,-1.426455845,0.493569295,4.267042574,178.541048462,-0.383817871,-4.278045675
248519.285342000,181204_214128246.jpg,6037471.515,2240192.625,94.420,3.272197355,0.233800808,-0.041155489,0.035050211,0.085033676,3.279542140,-1.437916814,0.718757470,4.086878510,178.514737413,-0.612121583,-4.103803213
248519.711330000,181204_214128673.jpg,6037460.792,2240192.628,94.426,3.273535119,0.216488293,-0.027005113,0.021095808,0.088270817,3.279576554,-1.514216603,0.471622146,3.783625147,178.458237939,-0.368415696,-3.794784744
248520.116329000,181204_214129079.jpg,6037450.051,2240192.654,94.408,3.274936634,0.194987041,-0.019925439,0.015396548,0.074541166,3.279949322,-1.283776442,0.347979680,3.407321302,178.698101633,-0.268883278,-3.414249469
248520.498306000,181204_214129461.jpg,6037439.502,2240192.820,94.342,3.276214668,0.170832221,-0.029378491,0.024644176,0.089038038,3.279530928,-1.530801266,0.513072283,2.984880368,178.444822417,-0.430385192,-2.997545350
248520.858296000,181204_214129822.jpg,6037429.218,2240193.038,94.305,3.276624685,0.158411698,-0.047646445,0.042966472,0.095051961,3.279172548,-1.622220268,0.832125718,2.767866645,178.339656268,-0.750379717,-2.790486654
248521.218285000,181204_214130183.jpg,6037418.535,2240193.293,94.338,3.277400647,0.147981835,-0.019319734,0.014741736,0.098960564,3.279306287,-1.715326053,0.337401460,2.585274313,178.271493117,-0.257447503,-2.594175476
248521.558275000,181204_214130524.jpg,6037408.361,2240193.590,94.301,3.277544972,0.144630391,-0.020202234,0.015154145,0.111845164,3.278890159,-1.940264869,0.352813706,2.526689514,178.046358987,-0.264649815,-2.537138615
248521.893265000,181204_214130859.jpg,6037398.108,2240193.949,94.247,3.277007681,0.156035127,-0.022391734,0.015426823,0.143825565,3.277641618,-2.497092324,0.391051892,2.726086696,177.487426036,-0.269411895,-2.740469587
248522.228255000,181204_214131195.jpg,6037387.587,2240194.183,94.201,3.275171344,0.191198668,-0.017955040,0.009366831,0.145268167,3.277601130,-2.524099960,0.313568088,3.341033532,177.462225883,-0.163580649,-3.351516802
248522.563245000,181204_214131531.jpg,6037376.924,2240194.244,94.108,3.272636307,0.227001914,-0.044214525,0.035150326,0.129978208,3.278067152,-2.222720994,0.772184891,3.967887469,177.729361349,-0.613870108,-3.994988610
248522.876236000,181204_214131844.jpg,6037366.670,2240194.268,94.127,3.270908309,0.252771067,-0.029921047,0.018595191,0.145770255,3.277539128,-2.514075878,0.522547853,4.418952385,177.453417455,-0.324744529,-4.437588432
248523.189227000,181204_214132158.jpg,6037356.318,2240194.156,94.102,3.271068935,0.250884680,-0.028181033,0.017916507,0.133033466,3.278084693,-2.293304753,0.492159092,4.385889117,177.676058252,-0.312891796,-4.402042138
248523.502218000,181204_214132471.jpg,6037345.831,2240194.157,94.065,3.271439541,0.244875523,-0.036751827,0.025109210,0.154762304,3.277083111,-2.663587657,0.641846602,4.280751027,177.296178964,-0.438506455,-4.305969898
248523.815208000,181204_214132785.jpg,6037335.156,2240194.166,94.060,3.272202468,0.235154711,-0.031991700,0.019755628,0.169148266,3.276408840,-2.923081688,0.558711285,4.110457667,177.044664029,-0.345010502,-4.133556402
248524.107200000,181204_214133078.jpg,6037325.122,2240194.139,94.014,3.272414697,0.229893869,-0.045655586,0.033965731,0.165473188,3.276479507,-2.842455924,0.797353894,4.018544157,177.108826905,-0.593181646,-4.053240502
248524.399191000,181204_214133370.jpg,6037314.901,2240194.147,94.037,3.272847499,0.225565879,-0.034932326,0.022825372,0.174409330,3.276112892,-3.012799810,0.610068977,3.942612043,176.952639504,-0.398620948,-3.969200423
248524.691182000,181204_214133663.jpg,6037304.619,2240194.100,94.036,3.273290258,0.219444144,-0.032333673,0.021711021,0.157185426,3.276992168,-2.714739003,0.564683789,3.835418259,177.253833304,-0.379159653,-3.857834315
248524.983174000,181204_214133955.jpg,6037294.300,2240194.147,94.027,3.273413112,0.217543842,-0.032736259,0.021582052,0.166482440,3.276533797,-2.877414824,0.571714891,3.802160580,177.091271093,-0.376907588,-3.826033105
248525.275165000,181204_214134248.jpg,6037283.887,2240194.159,94.048,3.273206807,0.222861894,-0.008620488,-0.002391221,0.160099566,3.276922995,-2.793609494,0.150548254,3.895069831,177.202941837,0.041759646,-3.897669051
248525.567157000,181204_214134540.jpg,6037273.591,2240194.147,93.971,3.273061207,0.222417552,-0.035097416,0.024701688,0.151851504,3.277222405,-2.617642047,0.612952278,3.887500071,177.347072077,-0.431389516,-3.911442507
248525.859148000,181204_214134833.jpg,6037263.192,2240194.163,93.977,3.272943192,0.226439305,-0.013927785,0.003329688,0.151705334,3.277321366,-2.640127900,0.243235353,3.957714672,177.349701969,-0.058149006,-3.964615196
248526.151139000,181204_214135126.jpg,6037252.925,2240194.178,93.923,3.272991012,0.225057657,-0.022514519,0.011428015,0.159860972,3.276915090,-2.772770268,0.393196250,3.933584924,177.207097080,-0.199577041,-3.947913304
248526.443131000,181204_214135418.jpg,6037242.702,2240194.191,93.906,3.273236352,0.222062257,-0.015444379,0.004120312,0.165374361,3.276659044,-2.877960065,0.269721391,3.881102022,177.110708622,-0.071956165,-3.889638064
248526.735122000,181204_214135711.jpg,6037232.595,2240194.200,93.864,3.273355599,0.219938091,-0.019945897,0.008978115,0.161748372,3.276830183,-2.809180214,0.348336949,3.843949048,177.174102601,-0.156792180,-3.856304377
248527.027113000,181204_214136003.jpg,6037222.574,2240194.163,93.823,3.273463844,0.218359012,-0.019524725,0.009941654,0.142229317,3.277732710,-2.467740724,0.340981485,3.816306859,177.515345449,-0.173619422,-3.827369272
248527.319105000,181204_214136296.jpg,6037212.638,2240194.228,93.795,3.273796355,0.211859110,-0.031678923,0.021103191,0.161994201,3.276761936,-2.800629087,0.553248699,3.702652535,177.169755729,-0.368544579,-3.725227077
248527.611096000,181204_214136589.jpg,6037202.676,2240194.262,93.799,3.273971113,0.208533086,-0.035474440,0.025798404,0.150571544,3.277272983,-2.596668566,0.619536975,3.644487672,177.369442710,-0.450542804,-3.668822836
248527.903087000,181204_214136881.jpg,6037192.598,2240194.376,93.815,3.274062081,0.209821194,0.010615903,-0.021214552,0.163373063,3.276694294,-2.872357906,-0.185396337,3.666836810,177.145646250,0.370489314,-3.652906608
248528.195079000,181204_214137174.jpg,6037182.701,2240194.391,93.715,3.274079347,0.204908630,-0.045284603,0.035563853,0.154030280,3.277020439,-2.647035923,0.790874423,3.581192067,177.308897858,-0.621092210,-3.614000813
248528.487070000,181204_214137466.jpg,6037172.584,2240194.475,93.738,3.273912318,0.210767101,-0.026544432,0.016421726,0.155759282,3.277091239,-2.697285798,0.463576530,3.683490112,177.278793770,-0.286786893,-3.701163862
248528.779061000,181204_214137759.jpg,6037162.462,2240194.495,93.727,3.273963600,0.210276245,-0.023975944,0.014670622,0.143420212,3.277662883,-2.484051159,0.418719187,3.674877755,177.494514341,-0.256205608,-3.689510999
248529.071053000,181204_214138051.jpg,6037152.317,2240194.574,93.679,3.273680656,0.212802515,-0.036903071,0.026786477,0.154355971,3.277088940,-2.660759175,0.644488063,3.719225294,177.303272063,-0.467798999,-3.745151945
248529.363044000,181204_214138344.jpg,6037142.056,2240194.597,93.695,3.273770777,0.213380878,-0.022844035,0.013722733,0.138526185,3.277877533,-2.399364976,0.398951043,3.729202684,177.580065843,-0.239651855,-3.742573130
248529.655036000,181204_214138637.jpg,6037131.774,2240194.651,93.661,3.273846849,0.211863379,-0.025880529,0.016652215,0.141208652,3.277749377,-2.443033046,0.451981778,3.702669983,177.533166298,-0.290812269,-3.718521847
248529.947027000,181204_214138929.jpg,6037121.456,2240194.694,93.629,3.273971772,0.208236072,-0.037127535,0.028421865,0.135668943,3.277902026,-2.333838725,0.648408357,3.639310051,177.629939550,-0.496360048,-3.662739418
248530.239018000,181204_214139222.jpg,6037111.008,2240194.763,93.638,3.274484522,0.201850368,-0.025230170,0.016796827,0.135286281,3.277998454,-2.340926192,0.440623569,3.527443343,177.636686146,-0.293337661,-3.542451469
248530.531010000,181204_214139514.jpg,6037100.556,2240194.863,93.598,3.274746130,0.195055950,-0.040294111,0.031945006,0.138754877,3.277740252,-2.386611173,0.703713190,3.408720424,177.575973846,-0.557890252,-3.435134933
248530.823001000,181204_214139807.jpg,6037089.948,2240194.991,93.617,3.275363502,0.187285630,-0.023379283,0.015127267,0.142496062,3.277701101,-2.470345927,0.408298834,3.272615136,177.510667439,-0.264180335,-3.287111023
248531.087040000,181204_214140071.jpg,6037080.365,2240195.103,93.572,3.275601566,0.180544450,-0.038344070,0.030859411,0.134094837,3.277944676,-2.309422135,0.669655297,3.154833835,177.657437533,-0.538930772,-3.179304641
248531.387078000,181204_214140372.jpg,6037069.323,2240195.298,93.575,3.276182453,0.172036863,-0.025710160,0.018047610,0.143839064,3.277627548,-2.492986428,0.449006353,3.005919622,177.487179758,-0.315181380,-3.022554043
248531.659070000,181204_214140645.jpg,6037059.270,2240195.481,93.542,3.276534960,0.164546899,-0.029547888,0.022198391,0.144131688,3.277589049,-2.495475631,0.516030736,2.874966748,177.482044578,-0.387671305,-2.894677400
248531.931061000,181204_214140917.jpg,6037049.112,2240195.684,93.516,3.276932001,0.157064653,-0.026011874,0.019294096,0.137797665,3.277879989,-2.388487054,0.454275647,2.744109406,177.592779388,-0.336950239,-2.760612433
248532.203053000,181204_214141190.jpg,6037038.892,2240195.902,93.479,3.277101488,0.151704117,-0.034974059,0.028654037,0.134114727,3.277963965,-2.317357189,0.610797833,2.650453386,177.657104546,-0.500414679,-2.672994122
248532.474999000,181204_214141462.jpg,6037028.561,2240196.120,93.461,3.277080683,0.152265984,-0.034476798,0.028466922,0.127010270,3.278248604,-2.193369768,0.602113190,2.660272657,177.781279646,-0.497147089,-2.681382518
248532.746991000,181204_214141735.jpg,6037018.117,2240196.404,93.436,3.277128804,0.153397248,-0.022906377,0.015978530,0.145495809,3.277565224,-2.526121171,0.400039810,2.679969216,177.458226124,-0.279046909,-2.694931484
248533.018983000,181204_214142007.jpg,6037007.652,2240196.629,93.384,3.277056191,0.152619532,-0.035236653,0.029198459,0.127330559,3.278229720,-2.198301387,0.615384034,2.666460571,177.775677434,-0.509923036,-2.688123060
248533.290975000,181204_214142280.jpg,6036997.057,2240196.893,93.369,3.277097334,0.152561174,-0.031446963,0.024618954,0.144175448,3.277569746,-2.496142892,0.549197553,2.665409043,177.481266287,-0.429944619,-2.686777081
248533.562967000,181204_214142552.jpg,6036986.392,2240197.076,93.334,3.277055569,0.153144351,-0.032935460,0.026743664,0.130146105,3.278140169,-2.249360108,0.575193877,2.675617041,177.726481814,-0.467051277,-2.696132417
248533.818959000,181204_214142809.jpg,6036976.245,2240197.323,93.330,3.276872909,0.158640577,-0.023792660,0.017001869,0.137933907,3.277887029,-2.392584686,0.415518226,2.771649871,177.590407016,-0.296918519,-2.786525284
248534.086951000,181204_214143077.jpg,6036965.550,2240197.629,93.290,3.275926964,0.177425385,-0.021238748,0.011915731,0.169970557,3.276404455,-2.954251492,0.370915715,3.100131183,177.030318864,-0.208094520,-3.115033669
248534.338944000,181204_214143330.jpg,6036955.451,2240197.806,93.231,3.274518888,0.201065327,-0.026992980,0.015971440,0.177725468,3.275975487,-3.082514849,0.471410210,3.513721983,176.894680777,-0.278923233,-3.533907569
248534.590936000,181204_214143582.jpg,6036945.289,2240197.885,93.189,3.272678492,0.228628649,-0.030580009,0.018214392,0.175729699,3.276071380,-3.040883245,0.534056419,3.996178893,176.929574560,-0.318094257,-4.018821410
248534.842975000,181204_214143835.jpg,6036935.030,2240197.916,93.170,3.270712480,0.256384279,-0.018296447,0.003220490,0.191109795,3.275259684,-3.324929163,0.319530485,4.482130372,176.660604832,-0.056242022,-4.492981448
248535.094968000,181204_214144087.jpg,6036924.820,2240197.786,93.106,3.269444742,0.270503540,-0.034505848,0.019807969,0.177017132,3.275992755,-3.053937940,0.602620541,4.729699396,176.907049308,-0.345924633,-4.755044187
248535.346960000,181204_214144340.jpg,6036914.478,2240197.620,93.116,3.269208396,0.275391191,-0.007840292,-0.006297603,0.166611676,3.276593279,-2.910032411,0.136922870,4.815107222,177.089069936,0.109980103,-4.815736843
248535.598953000,181204_214144592.jpg,6036904.245,2240197.494,93.027,3.268984315,0.276244642,-0.032585657,0.017877846,0.173464384,3.276193988,-2.993806675,0.569084618,4.830288508,176.969193974,-0.312216640,-4.853362348
248535.850946000,181204_214144845.jpg,6036893.912,2240197.355,93.019,3.269102810,0.275177779,-0.029574306,0.014699803,0.176019991,3.276073578,-3.043189978,0.516492105,4.811547988,176.924514236,-0.256715258,-4.832101366
248536.102938000,181204_214145097.jpg,6036883.587,2240197.241,92.986,3.269279828,0.271869288,-0.039108225,0.023419566,0.188075508,3.275352458,-3.241200038,0.683001380,4.753708765,176.713600828,-0.408998218,-4.784703524
248536.354884000,181204_214145350.jpg,6036873.217,2240197.088,92.985,3.269494037,0.270091707,-0.033026247,0.017624891,0.185707637,3.275524097,-3.208639536,0.576779456,4.722460298,176.755057141,-0.307799163,-4.747272203
248536.606877000,181204_214145602.jpg,6036862.850,2240196.938,92.972,3.269781293,0.266905136,-0.030377915,0.015584268,0.180439524,3.275828984,-3.120266953,0.530526887,4.666583596,176.847213395,-0.272161642,-4.688463852
248536.858869000,181204_214145855.jpg,6036852.495,2240196.863,92.946,3.270344039,0.259347669,-0.034938045,0.018949147,0.200670887,3.274633914,-3.469629483,0.610168826,4.534230478,176.493275437,-0.330926091,-4.562775144
248537.110862000,181204_214146107.jpg,6036842.160,2240196.794,92.925,3.270840434,0.251657301,-0.043653265,0.027674250,0.206691221,3.274196954,-3.564368860,0.762382136,4.399649037,176.387863884,-0.483303329,-4.438542034
248537.362854000,181204_214146360.jpg,6036831.757,2240196.719,92.959,3.271745496,0.242548305,-0.021921138,0.006980144,0.200181885,3.274711673,-3.479668417,0.382833211,4.239822167,176.501882566,-0.121899911,-4.255107641
248537.614847000,181204_214146612.jpg,6036821.421,2240196.685,92.928,3.272724385,0.227653129,-0.032873599,0.018666100,0.202768270,3.274506333,-3.512329597,0.574113485,3.979127143,176.456579319,-0.325982925,-4.006745985
248537.866839000,181204_214146865.jpg,6036811.035,2240196.676,92.917,3.273583626,0.215800855,-0.026650888,0.013545481,0.197133923,3.274875775,-3.421914171,0.465435723,3.771589619,176.555187713,-0.236556214,-3.792541095
248538.118785000,181204_214147117.jpg,6036800.664,2240196.709,92.871,3.274315199,0.203316374,-0.033975368,0.021929123,0.192192642,3.275123804,-3.328295718,0.593355732,3.553180448,176.641587336,-0.382968552,-3.581582711
248538.370778000,181204_214147370.jpg,6036790.223,2240196.753,92.858,3.274892622,0.194333612,-0.030721795,0.020099663,0.177145505,3.275984032,-3.069075275,0.536532668,3.395975190,176.904802282,-0.351018943,-3.419773212
248538.622770000,181204_214147622.jpg,6036779.751,2240196.888,92.828,3.275139366,0.189440579,-0.034733961,0.023822813,0.186607815,3.275433494,-3.231336253,0.606604511,3.310413319,176.739272076,-0.416040670,-3.339302942
248538.874763000,181204_214147875.jpg,6036769.201,2240196.987,92.816,3.275418738,0.185953517,-0.026141290,0.016078845,0.175219823,3.276109951,-3.040800161,0.456535824,3.249333270,176.938502277,-0.280798966,-3.268896636
248539.126755000,181204_214148127.jpg,6036758.613,2240197.132,92.776,3.275580081,0.183043341,-0.026464878,0.016469017,0.176788776,3.276023702,-3.068220446,0.462187133,3.198430349,176.911060524,-0.287612806,-3.218504884
248539.378748000,181204_214148380.jpg,6036747.996,2240197.314,92.723,3.275680579,0.178559535,-0.040826951,0.030434912,0.188339384,3.275279370,-3.257281420,0.713019382,3.120143217,176.708926537,-0.531517123,-3.155622765
248539.630741000,181204_214148632.jpg,6036737.221,2240197.492,92.725,3.275948090,0.177328888,-0.018623893,0.008363183,0.187287466,3.275471224,-3.260046259,0.325249082,3.098428445,176.727459003,-0.146053090,-3.111795077
248539.862734000,181204_214148865.jpg,6036727.303,2240197.648,92.657,3.275988832,0.175900993,-0.024200639,0.014083907,0.186112570,3.275518386,-3.234300471,0.422643347,3.073489039,176.747991060,-0.245959410,-3.092341690
248540.094680000,181204_214149097.jpg,6036717.320,2240197.832,92.611,3.275762077,0.179614091,-0.027424631,0.016708096,0.193152560,3.275098316,-3.354270992,0.478948811,3.138455834,176.624826093,-0.291788225,-3.161012412
248540.326673000,181204_214149330.jpg,6036707.273,2240197.999,92.568,3.275315898,0.186922486,-0.031580191,0.020271427,0.195979333,3.274910102,-3.399014166,0.551524328,3.266330715,176.575351178,-0.354018694,-3.293213076
248540.558667000,181204_214149562.jpg,6036697.146,2240198.098,92.544,3.274887752,0.194990762,-0.026818589,0.015543497,0.187422428,3.275437032,-3.253135950,0.468364545,3.407436898,176.725072222,-0.271449646,-3.428434837
248540.790660000,181204_214149795.jpg,6036686.915,2240198.136,92.526,3.274338213,0.205742112,-0.001987527,-0.008589664,0.166449397,3.276596400,-2.911968726,0.034710138,3.595437172,177.091902879,0.150008268,-3.592458504
248541.022653000,181204_214150027.jpg,6036676.815,2240198.232,92.411,3.273571217,0.211073131,-0.053071215,0.041510416,0.177968514,3.275737296,-3.056559229,0.926874815,3.689207020,176.890216568,-0.724949309,-3.733554714
248541.254646000,181204_214150260.jpg,6036666.479,2240198.315,92.460,3.273530644,0.216698691,-0.025866536,0.013079827,0.191544238,3.275209406,-3.324750603,0.451737361,3.787296794,176.652979403,-0.228424043,-3.807018125
248541.486639000,181204_214150492.jpg,6036656.190,2240198.340,92.411,3.273290552,0.218872658,-0.036006832,0.023454878,0.186271358,3.275455323,-3.220310337,0.628835169,3.825459264,176.745159864,-0.409615027,-3.854711855
248541.718632000,181204_214150724.jpg,6036645.795,2240198.309,92.422,3.273308741,0.220554153,-0.020853895,0.009151272,0.172181046,3.276298012,-2.990928821,0.364194501,3.854738825,176.991670771,-0.159816045,-3.868387025
248541.950625000,181204_214150957.jpg,6036635.415,2240198.294,92.374,3.273360656,0.218650146,-0.030555198,0.019617471,0.162417428,3.276750276,-2.808591188,0.533623070,3.821500123,177.162363468,-0.342597885,-3.843013344
248542.182618000,181204_214151189.jpg,6036624.989,2240198.308,92.342,3.273302563,0.217981289,-0.040103885,0.029604229,0.156529706,3.276961475,-2.694382450,0.700390801,3.809911930,177.265246516,-0.517009632,-3.838671752
248542.414612000,181204_214151422.jpg,6036614.486,2240198.282,92.360,3.273736347,0.211668224,-0.038475323,0.029252203,0.141495081,3.277648334,-2.433845257,0.671947613,3.699393315,177.528092701,-0.510861364,-3.724641618
248542.646605000,181204_214151654.jpg,6036603.910,2240198.269,92.364,3.274592912,0.200288472,-0.023572078,0.015905485,0.123834074,3.278455611,-2.142306657,0.411665861,3.500100927,177.836847156,-0.277771377,-3.513001102
248542.878598000,181204_214151887.jpg,6036593.335,2240198.398,92.318,3.275192745,0.190000045,-0.025353123,0.017123967,0.140129778,3.277793245,-2.426692336,0.442770860,3.320113977,177.552023365,-0.299050832,-3.335835064
248543.110591000,181204_214152119.jpg,6036582.706,2240198.582,92.265,3.275707247,0.181946989,-0.016294186,0.007271622,0.160388887,3.276901304,-2.790954058,0.284562549,3.179189347,177.197876860,-0.126990224,-3.189174895
248543.342584000,181204_214152352.jpg,6036572.089,2240198.740,92.195,3.275970361,0.175508805,-0.029089569,0.020641988,0.155620846,3.277073807,-2.695756089,0.508026299,3.066666749,177.281194289,-0.360490004,-3.087123062
248543.574577000,181204_214152584.jpg,6036561.393,2240198.929,92.177,3.276221630,0.170956546,-0.027870078,0.019368728,0.160721329,3.276835405,-2.786675222,0.486728340,2.987042370,177.192021674,-0.338253643,-3.007117999
248543.806570000,181204_214152817.jpg,6036550.684,2240199.132,92.132,3.276224134,0.170150579,-0.032192211,0.023458472,0.165917163,3.276549515,-2.873814349,0.562213128,2.972983154,177.101144627,-0.409677533,-2.997396261
248544.038564000,181204_214153049.jpg,6036539.915,2240199.320,92.112,3.276032167,0.174718607,-0.026786226,0.017959457,0.163360474,3.276712958,-2.833506938,0.467799326,3.052828297,177.145882002,-0.313642037,-3.072157192
248544.270557000,181204_214153282.jpg,6036529.125,2240199.496,92.075,3.275903079,0.177325893,-0.025399315,0.016441527,0.163387491,3.276719635,-2.835039987,0.443577568,3.098418703,177.145416545,-0.287132829,-3.116495437
248544.482550000,181204_214153494.jpg,6036519.260,2240199.623,92.036,3.275409715,0.184728004,-0.034635692,0.025774874,0.155289075,3.277053007,-2.683470946,0.604888224,3.227973086,177.286964521,-0.450131857,-3.252748090
248544.694544000,181204_214153706.jpg,6036509.308,2240199.752,92.046,3.275052536,0.192782305,-0.022264643,0.013093082,0.154019550,3.277188593,-2.672848217,0.388832293,3.368764695,177.309222645,-0.228655520,-3.383155410
248544.906538000,181204_214153919.jpg,6036499.388,2240199.833,92.005,3.274699730,0.197106089,-0.033517928,0.024640621,0.145964956,3.277490382,-2.519647468,0.585366580,3.444510732,177.449982898,-0.430323023,-3.466912909
248545.118532000,181204_214154131.jpg,6036489.419,2240199.933,91.987,3.274490253,0.200184914,-0.035675156,0.026222701,0.153124920,3.277151282,-2.642343288,0.623042433,3.498405111,177.324799113,-0.457953129,-3.523416358
248545.330525000,181204_214154344.jpg,6036479.394,2240200.021,91.982,3.274362542,0.203291224,-0.029226930,0.019675834,0.152316444,3.277235056,-2.634737083,0.510425259,3.552690823,177.338971514,-0.343616993,-3.572359158
248545.542519000,181204_214154556.jpg,6036469.381,2240200.117,91.933,3.274219248,0.204640907,-0.035262856,0.025252721,0.158698480,3.276893732,-2.739805310,0.615841615,3.576372789,177.227356607,-0.441012944,-3.601719747
248545.754513000,181204_214154768.jpg,6036459.309,2240200.203,91.924,3.273734822,0.213452561,-0.027007691,0.016256063,0.163435282,3.276718175,-2.831019023,0.471667114,3.730492787,177.144581867,-0.283893776,-3.749169672
248545.966507000,181204_214154981.jpg,6036449.270,2240200.265,91.878,3.273291736,0.219231768,-0.033635680,0.022198775,0.169440978,3.276377989,-2.928018299,0.587423104,3.831715723,177.039531296,-0.387678024,-3.856690372
248546.178500000,181204_214155193.jpg,6036439.201,2240200.299,91.858,3.272832551,0.226381865,-0.030828466,0.018776123,0.172966468,3.276215261,-2.992363160,0.538395625,3.956847262,176.977897037,-0.327904368,-3.979502520
248546.390494000,181204_214155406.jpg,6036429.127,2240200.338,91.841,3.272455333,0.232261173,-0.026869648,0.013688869,0.184386078,3.275617734,-3.196912482,0.469256252,4.059736727,176.778192314,-0.239060480,-4.079494294
248546.602488000,181204_214155618.jpg,6036419.104,2240200.326,91.808,3.272271938,0.232843218,-0.040680473,0.027625302,0.182369564,3.275642244,-3.144344764,0.710461064,4.070103577,176.813378021,-0.482448596,-4.102962615
248546.814481000,181204_214155831.jpg,6036409.019,2240200.275,91.835,3.272650112,0.230173394,-0.020273581,0.008145154,0.171066958,3.276359071,-2.971645468,0.354059687,4.023125743,177.011156185,-0.142245489,-4.035964769
248547.026522000,181204_214156043.jpg,6036399.047,2240200.246,91.782,3.272926783,0.223642581,-0.039605105,0.028226830,0.165396906,3.276538046,-2.849486556,0.691679475,3.909005438,177.110208858,-0.492953785,-3.938587778
248547.238562000,181204_214156255.jpg,6036389.027,2240200.217,91.809,3.273490573,0.217263092,-0.026215688,0.016452763,0.145780475,3.277550213,-2.522258011,0.457835134,3.797178496,177.453248010,-0.287328776,-3.813596532
248547.450556000,181204_214156468.jpg,6036379.066,2240200.261,91.801,3.274200453,0.206065171,-0.027928066,0.018140211,0.154017739,3.277164441,-2.665674698,0.487741075,3.601219045,177.309234629,-0.316798599,-3.619956548
248547.662550000,181204_214156680.jpg,6036369.132,2240200.322,91.783,3.274737871,0.198225394,-0.020694604,0.011398496,0.151864393,3.277295573,-2.636379124,0.361412579,3.463983298,177.346906497,-0.199061533,-3.476859511
248547.874497000,181204_214156893.jpg,6036359.280,2240200.469,91.743,3.274498594,0.199920590,-0.036390029,0.025671368,0.173891295,3.276119281,-3.005411366,0.635527707,3.493788388,176.961679637,-0.448324221,-3.522292534
248548.086490000,181204_214157105.jpg,6036349.319,2240200.521,91.784,3.274452821,0.203896087,0.003017685,-0.012706737,0.153646637,3.277208552,-2.693039473,-0.052700813,3.563136144,177.315744465,0.221908221,-3.556649610
248548.298484000,181204_214157318.jpg,6036339.518,2240200.603,91.690,3.274298301,0.204823694,-0.025472424,0.015284232,0.161268635,3.276830264,-2.795503337,0.444854387,3.579472742,177.182470658,-0.266921695,-3.596838649
248548.510478000,181204_214157530.jpg,6036329.693,2240200.698,91.657,3.274380391,0.202211890,-0.034300792,0.023688246,0.170235909,3.276326283,-2.943301613,0.599039213,3.533857237,177.025620398,-0.413690369,-3.559930933
248548.722472000,181204_214157742.jpg,6036319.820,2240200.799,91.671,3.274527171,0.201426555,-0.023011149,0.012169817,0.174486777,3.276166076,-3.030011550,0.401869552,3.520009890,176.951338238,-0.212531845,-3.536236896
248548.934465000,181204_214157955.jpg,6036310.016,2240200.898,91.622,3.274652528,0.197259508,-0.037058041,0.026349798,0.176027851,3.275999749,-3.042510339,0.647194571,3.447234893,176.924308139,-0.460172552,-3.476718350
248549.146459000,181204_214158167.jpg,6036300.146,2240201.013,91.635,3.275177590,0.190483872,-0.023626256,0.012865041,0.183037725,3.275696730,-3.179932468,0.412612052,3.328564891,176.801780129,-0.224673074,-3.346230298
248549.358453000,181204_214158380.jpg,6036290.355,2240201.147,91.591,3.275526987,0.181739955,-0.039088073,0.028543555,0.187843465,3.275324959,-3.249759421,0.682649384,3.175753618,176.717619035,-0.498485254,-3.209338661
248549.570447000,181204_214158592.jpg,6036280.491,2240201.230,91.597,3.275777102,0.179862760,-0.023757266,0.014601320,0.164695204,3.276662942,-2.859291798,0.414900063,3.142777823,177.122557798,-0.254995467,-3.159482948
248549.782440000,181204_214158804.jpg,6036270.668,2240201.352,91.572,3.275762801,0.179358173,-0.028993515,0.019865337,0.164672919,3.276636189,-2.853933982,0.506348743,3.133992323,177.122923029,-0.346926483,-3.155263437
248549.994434000,181204_214159017.jpg,6036260.847,2240201.432,91.531,3.275599766,0.181338153,-0.034582620,0.026725510,0.140169967,3.277726951,-2.419278996,0.603961310,3.168676530,177.551272672,-0.466734214,-3.191357651
248550.206381000,181204_214159229.jpg,6036250.950,2240201.590,91.545,3.275419640,0.187383143,-0.011900277,0.003302607,0.148332240,3.277475816,-2.583996549,0.207826683,3.274259363,177.408670920,-0.057675922,-3.280203189
248550.418375000,181204_214159442.jpg,6036241.172,2240201.700,91.454,3.274988163,0.190288452,-0.043339698,0.034911678,0.143560790,3.277502899,-2.468489578,0.756905485,3.325349636,177.491939326,-0.609702201,-3.354955627
248550.630369000,181204_214159654.jpg,6036231.240,2240201.797,91.505,3.275035471,0.193673520,-0.016190605,0.007786349,0.140331598,3.277820423,-2.439352111,0.282753589,3.384319669,177.548522144,-0.135979331,-3.393203434
248550.842362000,181204_214159867.jpg,6036221.400,2240201.923,91.446,3.274499836,0.200458981,-0.033166985,0.024042428,0.147578049,3.277422599,-2.547831649,0.579237388,3.503172520,177.421786879,-0.419876008,-3.525452850
248551.054356000,181204_214200079.jpg,6036211.519,2240202.024,91.432,3.273860035,0.210324968,-0.035176732,0.025156357,0.154649916,3.277088071,-2.668202798,0.614337448,3.675842885,177.298143703,-0.439329994,-3.700459229
248551.266350000,181204_214200291.jpg,6036201.660,2240202.013,91.425,3.273323145,0.216332397,-0.046821064,0.038088739,0.131319921,3.277980754,-2.245239022,0.817709697,3.781152559,177.705887047,-0.665189329,-3.810450875
248551.478344000,181204_214200504.jpg,6036191.740,2240201.971,91.457,3.272668069,0.227535089,-0.038805994,0.030896915,0.113066961,3.278737131,-1.932932655,0.677722803,3.977138757,178.024942205,-0.539585453,-3.997834925
248551.690337000,181204_214200716.jpg,6036181.831,2240201.928,91.462,3.271985835,0.237925666,-0.033663293,0.026154702,0.102619914,3.279122223,-1.754720392,0.587905347,4.158998843,178.207516703,-0.456765373,-4.175113398
248551.902331000,181204_214200929.jpg,6036171.926,2240201.898,91.458,3.271333995,0.246654251,-0.034188585,0.026408201,0.102678214,3.279118359,-1.753828195,0.597079520,4.311867319,178.206496946,-0.461192579,-4.328191057
248552.114325000,181204_214201141.jpg,6036161.953,2240201.849,91.483,3.271016827,0.252831812,-0.012368671,0.003643469,0.111723862,3.278927720,-1.940939015,0.216006763,4.419864069,178.048498488,-0.063628815,-4.424570577
248552.326318000,181204_214201353.jpg,6036152.065,2240201.723,91.421,3.270875397,0.253727193,-0.025055062,0.017538762,0.096190402,3.279374871,-1.651505708,0.437565352,4.435645270,178.319885072,-0.306294809,-4.446411485
248552.538312000,181204_214201566.jpg,6036142.156,2240201.626,91.401,3.271333049,0.247178226,-0.030255775,0.023004278,0.095368921,3.279364883,-1.630872069,0.528393709,4.320993740,178.334220390,-0.401745296,-4.334323345
248552.750306000,181204_214201778.jpg,6036132.201,2240201.557,91.413,3.271918789,0.240325263,-0.020523737,0.013832393,0.090124814,3.279565072,-1.552341950,0.358428486,4.200880735,178.425866305,-0.241566793,-4.209025475
248552.962300000,181204_214201991.jpg,6036122.255,2240201.562,91.387,3.272898515,0.226717276,-0.019085900,0.011489869,0.108447976,3.279019326,-1.876021257,0.333317679,3.962611510,178.105729656,-0.200657148,-3.971350742
248553.174293000,181204_214202203.jpg,6036112.311,2240201.505,91.361,3.273371804,0.220170690,-0.013796158,0.008274083,0.080730324,3.279828758,-1.397286787,0.240936567,3.847983082,178.589995270,-0.144497038,-3.852672724
248553.386287000,181204_214202416.jpg,6036102.459,2240201.538,91.323,3.272947678,0.220353900,-0.053812491,0.047579291,0.092322241,3.279186726,-1.553197065,0.939822121,3.851673026,178.387319919,-0.830944371,-3.876075225
248553.598281000,181204_214202628.jpg,6036092.445,2240201.492,91.419,3.272748126,0.228367476,-0.024474082,0.019477331,0.070674450,3.280013113,-1.207820958,0.427418856,3.991543974,178.765638253,-0.340150118,-3.999689700
248553.810275000,181204_214202840.jpg,6036082.479,2240201.435,91.427,3.271989143,0.239620852,-0.017265932,0.013159745,0.055040664,3.280344441,-0.942057063,0.301533317,4.188521800,179.038728129,-0.229819843,-4.192910332
248554.022268000,181204_214203053.jpg,6036072.529,2240201.427,91.406,3.271316068,0.248328349,-0.021316296,0.015851932,0.071156730,3.280022339,-1.218384957,0.372270012,4.341045131,178.757221447,-0.276836086,-4.347982175
248554.234309000,181204_214203265.jpg,6036062.554,2240201.335,91.401,3.271126338,0.251236693,-0.015538379,0.010599906,0.063306220,3.280204660,-1.088352883,0.271362980,4.391942075,178.894358420,-0.185114857,-4.396284939
248554.446349000,181204_214203478.jpg,6036052.587,2240201.238,91.357,3.271488813,0.246464139,-0.015661938,0.011419617,0.055289780,3.280346840,-0.948046595,0.273520847,4.308353287,179.034378786,-0.199430086,-4.312278629
248554.658389000,181204_214203690.jpg,6036042.630,2240201.202,91.321,3.271899506,0.240038442,-0.026204100,0.021078194,0.069128694,3.280036111,-1.177314088,0.457632737,4.195909679,178.792636088,-0.368107937,-4.204466932
248554.870430000,181204_214203903.jpg,6036032.635,2240201.175,91.301,3.272113036,0.237697221,-0.020157877,0.014840311,0.072226871,3.280003712,-1.239512769,0.352038998,4.154858602,178.738529592,-0.259169179,-4.161495846
248555.082423000,181204_214204115.jpg,6036022.639,2240201.202,91.275,3.272161516,0.237020064,-0.020262186,0.013302999,0.095048224,3.279428255,-1.639162452,0.353860690,4.143002253,178.339851013,-0.232321625,-4.151399153
248555.294417000,181204_214204328.jpg,6036012.608,2240201.180,91.247,3.271991658,0.240133468,-0.005756795,-0.000940765,0.089820029,3.279603003,-1.565943910,0.100536627,4.197447008,178.431205067,0.016429458,-4.198567431
248555.506318000,181204_214204540.jpg,6036002.637,2240201.152,91.177,3.271879325,0.240901556,-0.020055776,0.013203557,0.092080416,3.279513350,-1.587158832,0.350255878,4.210968743,178.391701845,-0.230584975,-4.219026501
248555.718265000,181204_214204752.jpg,6035992.628,2240201.121,91.138,3.271732179,0.242852683,-0.020528878,0.013259663,0.096969912,3.279372165,-1.672067293,0.358518265,4.245140572,178.306276452,-0.231564689,-4.253763445
248555.930258000,181204_214204965.jpg,6035982.602,2240201.081,91.114,3.271300812,0.248757356,-0.018453602,0.011028089,0.096681027,3.279389037,-1.669341148,0.322275057,4.348536105,178.311328058,-0.192592787,-4.356038107
248556.142252000,181204_214205177.jpg,6035972.579,2240201.028,91.078,3.270833073,0.254653406,-0.020810570,0.012922668,0.100470701,3.279268108,-1.732200423,0.363437828,4.451829685,178.245111842,-0.225679295,-4.460747555
248556.354246000,181204_214205390.jpg,6035962.575,2240200.893,91.050,3.271039920,0.250925186,-0.031101428,0.024521376,0.085283555,3.279631676,-1.452560093,0.543162819,4.386633234,178.510415623,-0.428240320,-4.399057285
248556.566240000,181204_214205602.jpg,6035952.524,2240200.771,91.051,3.271965852,0.239768785,-0.019505972,0.014352848,0.069353399,3.280067922,-1.189852579,0.340653934,4.191128147,178.788724459,-0.250655982,-4.197292046
248556.778233000,181204_214205814.jpg,6035942.507,2240200.754,91.022,3.272764364,0.228375089,-0.022113296,0.016398766,0.080865458,3.279794580,-1.389153517,0.386189098,3.991656869,178.587620995,-0.286385995,-3.999842136
248556.990227000,181204_214206027.jpg,6035932.479,2240200.755,91.004,3.273611233,0.216521726,-0.014726684,0.009331358,0.080197542,3.279838961,-1.387048688,0.257187406,3.784120031,178.599301082,-0.162961001,-3.789199303
248557.202221000,181204_214206239.jpg,6035922.495,2240200.792,90.959,3.274357798,0.204472468,-0.020058591,0.015081315,0.078338961,3.279862283,-1.349321005,0.350305030,3.573285911,178.631759598,-0.263378069,-3.580529763
248557.414215000,181204_214206452.jpg,6035912.520,2240200.887,90.927,3.274838147,0.196270091,-0.023330423,0.018012364,0.087316623,3.279620612,-1.503684330,0.407445482,3.429791630,178.474916881,-0.314565973,-3.439296060
248557.626208000,181204_214206664.jpg,6035902.551,2240200.985,90.915,3.275171715,0.191290046,-0.016971335,0.011738872,0.087949152,3.279632388,-1.521724260,0.296388399,3.342626289,178.463879920,-0.205005674,-3.349281845
248557.838202000,181204_214206876.jpg,6035892.635,2240201.113,90.878,3.275514985,0.185102405,-0.019207728,0.013836148,0.093362313,3.279474468,-1.614634325,0.335445307,3.234397826,178.369304767,-0.241632226,-3.242532653
248558.050196000,181204_214207089.jpg,6035882.729,2240201.273,90.855,3.275766780,0.181218772,-0.011843087,0.006060154,0.102616207,3.279221771,-1.783969825,0.206827919,3.166433617,178.207635822,-0.105833352,-3.171276085
248558.262189000,181204_214207301.jpg,6035872.887,2240201.464,90.801,3.275970842,0.177142515,-0.016284356,0.009729051,0.119282441,3.278648773,-2.071563046,0.284390860,3.095156880,177.916407106,-0.169906277,-3.103349527
248558.474183000,181204_214207514.jpg,6035863.060,2240201.636,90.768,3.276075830,0.175346073,-0.014494972,0.007645939,0.125941171,3.278405302,-2.189866723,0.253140742,3.063730307,177.800042145,-0.133527361,-3.071091465
248558.686177000,181204_214207726.jpg,6035853.282,2240201.813,90.729,3.276187233,0.172654637,-0.020451501,0.013567538,0.128622541,3.278281810,-2.231424676,0.357166934,3.016689399,177.753166566,-0.236941506,-3.028249617
248558.898171000,181204_214207939.jpg,6035843.522,2240201.986,90.709,3.276260644,0.171285134,-0.020204240,0.013328030,0.129490612,3.278248624,-2.246943289,0.352848691,2.992737645,177.737995545,-0.232758505,-3.004210206
248559.110164000,181204_214208151.jpg,6035833.796,2240202.149,90.684,3.276360883,0.169516195,-0.018813493,0.012167233,0.126388917,3.278374248,-2.194045378,0.328560285,2.961795142,177.792207838,-0.212486692,-2.972139713
248559.322158000,181204_214208363.jpg,6035824.120,2240202.309,90.645,3.276319986,0.169966093,-0.021677169,0.015233290,0.122208257,3.278519852,-2.118259614,0.378572404,2.969678745,177.865262545,-0.266032163,-2.981593875
248559.534152000,181204_214208576.jpg,6035814.482,2240202.455,90.627,3.276260277,0.170424516,-0.026576191,0.020490152,0.115104469,3.278748157,-1.989461622,0.464131118,2.977728171,177.989386593,-0.357838301,-2.992027925
248559.746146000,181204_214208788.jpg,6035804.857,2240202.625,90.625,3.276169428,0.172749202,-0.022423039,0.016201720,0.116070451,3.278738248,-2.009934494,0.391598564,3.018354988,177.972521286,-0.282944808,-3.030192608
248559.958232000,181204_214209001.jpg,6035795.271,2240202.777,90.612,3.275963539,0.176373011,-0.024231154,0.018093398,0.112197514,3.278863127,-1.940143784,0.423176237,3.081744387,178.040193089,-0.315980997,-3.094277338
248560.170226000,181204_214209213.jpg,6035785.694,2240202.932,90.598,3.275712588,0.181681786,-0.018138262,0.011649475,0.115162462,3.278789771,-1.997422273,0.316767878,3.174559740,177.988400063,-0.203444599,-3.183615873
248560.382220000,181204_214209426.jpg,6035776.158,2240203.077,90.561,3.275428052,0.185705585,-0.026774050,0.019978184,0.118232824,3.278640000,-2.042360929,0.467586646,3.245000995,177.934720068,-0.348897070,-3.259585543
248560.594167000,181204_214209638.jpg,6035766.566,2240203.208,90.546,3.275149235,0.192099333,-0.011132359,0.003953338,0.120579178,3.278613590,-2.098775231,0.194415699,3.356758602,177.893753923,-0.069040433,-3.361550131
248560.806161000,181204_214209850.jpg,6035757.021,2240203.330,90.476,3.274891731,0.195796187,-0.019460005,0.011861634,0.125457180,3.278411171,-2.175402834,0.339851147,3.421474082,177.808492209,-0.207149597,-3.431848050
248561.018155000,181204_214210063.jpg,6035747.456,2240203.450,90.425,3.274885671,0.195832429,-0.020108719,0.012018788,0.133633337,3.278087450,-2.317878418,0.351180479,3.422112219,177.665592722,-0.209894143,-3.433449650
248561.230148000,181204_214210275.jpg,6035737.885,2240203.555,90.376,3.274840705,0.196010772,-0.025105177,0.016858395,0.136200074,3.277960300,-2.357587952,0.438440563,3.425268206,177.620713773,-0.294412883,-3.440359147
248561.442189000,181204_214210488.jpg,6035728.247,2240203.698,90.359,3.274976792,0.194991130,-0.011592379,0.002097955,0.157599932,3.277044230,-2.746497952,0.202449514,3.407350904,177.246646426,-0.036638402,-3.413034039
248561.654229000,181204_214210700.jpg,6035718.632,2240203.780,90.302,3.275242865,0.190185938,-0.015601360,0.006669959,0.151941279,3.277305228,-2.643392542,0.272462880,3.323304310,177.345573156,-0.116483004,-3.332240296
248561.866269000,181204_214210913.jpg,6035708.972,2240203.862,90.259,3.275508994,0.186049983,-0.007365354,-0.000672538,0.139524639,3.277864368,-2.434305731,0.128628517,3.250925902,177.562634707,0.011745029,-3.253364613
248562.078310000,181204_214211125.jpg,6035699.331,2240204.023,90.182,3.275750553,0.180927137,-0.018828759,0.010068956,0.156595217,3.277077321,-2.722116644,0.328826885,3.161363857,177.264200002,-0.175842474,-3.173324897
248562.290257000,181204_214211337.jpg,6035689.643,2240204.142,90.135,3.276095052,0.175026617,-0.014022783,0.006151910,0.145233790,3.277610389,-2.528016479,0.244894358,3.058141302,177.462832598,-0.107435751,-3.065877118
248562.502204000,181204_214211550.jpg,6035679.959,2240204.317,90.070,3.276257566,0.171129640,-0.021969712,0.013974544,0.150938971,3.277328274,-2.620772520,0.383681467,2.990028549,177.363077326,-0.244049313,-3.004372695
248562.714151000,181204_214211762.jpg,6035670.227,2240204.485,90.025,3.276402208,0.168732228,-0.018679580,0.010889621,0.149081419,3.277425125,-2.591395563,0.326221583,2.948084737,177.395560522,-0.190174613,-2.959737958
248562.926098000,181204_214211975.jpg,6035660.478,2240204.658,89.971,3.276182642,0.172938868,-0.018720532,0.010921246,0.145662439,3.277578771,-2.531259723,0.326936774,3.021650629,177.455329947,-0.190726922,-3.033062420
248563.138092000,181204_214212187.jpg,6035650.679,2240204.854,89.917,3.275846275,0.179776585,-0.011875398,0.003025805,0.159177961,3.276967187,-2.774068974,0.207392182,3.141208883,177.219054994,-0.052842036,-3.147462345
248563.350086000,181204_214212399.jpg,6035640.848,2240205.003,89.858,3.275022879,0.194486339,-0.005305499,-0.004209034,0.158285974,3.277009352,-2.765040104,0.092655178,3.398502966,177.234649867,0.073505573,-3.398914774
248563.562126000,181204_214212612.jpg,6035631.026,2240205.133,89.774,3.274087843,0.209398936,-0.011419476,0.000831324,0.163849778,3.276738255,-2.856049172,0.199429923,3.659448783,177.137369499,-0.014517935,-3.664730968
248563.774120000,181204_214212824.jpg,6035621.166,2240205.111,89.715,3.273371695,0.220596923,-0.001387449,-0.007889957,0.135942670,3.278005733,-2.378826700,0.024230389,3.855410152,177.625237959,0.137788794,-3.853014497
248563.986067000,181204_214213037.jpg,6035611.272,2240205.092,89.635,3.272500901,0.232385712,0.018899296,-0.028456440,0.132479469,3.278034260,-2.343806161,-0.330058892,4.061849908,177.685689807,0.496963557,-4.045019267
248564.198014000,181204_214213249.jpg,6035601.507,2240205.072,89.495,3.272203933,0.237044573,-0.010997381,0.001253818,0.133143952,3.278129547,-2.318337361,0.192058424,4.143375648,177.674161876,-0.021896437,-4.147663846
248564.410008000,181204_214213462.jpg,6035591.631,2240205.068,89.468,3.271631474,0.245012098,0.004747502,-0.015406195,0.140630980,3.277781476,-2.470112294,-0.082910332,4.282879332,177.543269594,0.269051801,-4.275278795
248564.622001000,181204_214213674.jpg,6035581.761,2240204.999,89.410,3.271548581,0.245050097,0.023280438,-0.032912252,0.126385756,3.278233341,-2.244675046,-0.406572696,4.283649212,177.792168134,0.574782158,-4.264569655
248564.833995000,181204_214213886.jpg,6035572.036,2240204.925,89.290,3.271629707,0.244528213,-0.016619846,0.006807827,0.130144057,3.278243007,-2.258370364,0.290249908,4.274454561,177.726588780,-0.118890595,-4.282492864
248565.045989000,181204_214214099.jpg,6035562.160,2240204.838,89.293,3.271654779,0.243407864,0.025472252,-0.034433054,0.118145071,3.278525161,-2.102820622,-0.444851576,4.254909991,177.936179408,0.601342488,-4.235878192
248565.257983000,181204_214214311.jpg,6035552.482,2240204.810,89.149,3.271962740,0.240539053,-0.005433783,-0.004556680,0.134428490,3.278074388,-2.347968242,0.094895541,4.204548120,177.651708388,0.079577181,-4.204819328
248565.469976000,181204_214214524.jpg,6035542.783,2240204.736,89.069,3.271945450,0.240665577,-0.009093714,-0.000163719,0.124498896,3.278469601,-2.169254613,0.158812664,4.206773930,177.825254235,0.002859269,-4.209686868
248565.681970000,181204_214214736.jpg,6035533.065,2240204.682,89.044,3.271802998,0.242691869,0.005654739,-0.015038948,0.124768764,3.278425372,-2.193090132,-0.098754314,4.242248272,177.820515574,0.262637770,-4.235323140
248565.893964000,181204_214214948.jpg,6035523.452,2240204.613,88.928,3.271741410,0.243428885,-0.008961701,-0.000056678,0.119875562,3.278641930,-2.088406014,0.156507171,4.255163855,177.906051453,0.000989950,-4.257960259
248566.105957000,181204_214215161.jpg,6035513.827,2240204.555,88.884,3.271541822,0.246229101,-0.003731111,-0.005463224,0.120700523,3.278607296,-2.109738624,0.065160067,4.304190640,177.891632037,0.095408759,-4.303596644
248566.317998000,181204_214215373.jpg,6035504.282,2240204.522,88.804,3.271344908,0.247918628,-0.021720200,0.012052679,0.126618238,3.278365821,-2.189696267,0.379323881,4.333872021,177.788200151,-0.210485991,-4.345143694
248566.529992000,181204_214215586.jpg,6035494.688,2240204.472,88.789,3.271241809,0.250150626,-0.005547681,-0.004536737,0.130486670,3.278233718,-2.278957075,0.096884648,4.372876263,177.720603942,0.079228764,-4.373185853
248566.741985000,181204_214215798.jpg,6035485.183,2240204.399,88.717,3.271081792,0.251981533,-0.012650668,0.002720626,0.127736748,3.278343787,-2.221240766,0.220931557,4.404971423,177.768666531,-0.047512439,-4.410138948
248566.953979000,181204_214216011.jpg,6035475.669,2240204.292,88.683,3.270936701,0.254167157,-0.000344677,-0.008575112,0.113284232,3.278865416,-1.984576049,0.006019430,4.443222984,178.021227264,0.149754235,-4.440705365
248567.165973000,181204_214216223.jpg,6035466.237,2240204.212,88.602,3.270733699,0.256542210,-0.010848062,0.001602918,0.116702286,3.278755979,-2.030210032,0.189450693,4.484851086,177.961504616,-0.027993026,-4.488668852
248567.377966000,181204_214216435.jpg,6035456.802,2240204.156,88.556,3.270627568,0.257944686,-0.009491878,-0.000810433,0.129413472,3.278279175,-2.254900267,0.165766211,4.509413955,177.739362634,0.014153221,-4.512355786
248567.589960000,181204_214216648.jpg,6035447.385,2240204.067,88.511,3.270555228,0.258998755,-0.004145981,-0.005656824,0.122425321,3.278543015,-2.139783608,0.072405357,4.527864548,177.861489555,0.098789779,-4.527334280
248567.801954000,181204_214216860.jpg,6035438.007,2240204.003,88.444,3.270555454,0.259021733,-0.001818085,-0.009033822,0.135586539,3.278017568,-2.373750653,0.031750999,4.528264280,177.631460962,0.157764839,-4.525617882
248568.013948000,181204_214217073.jpg,6035428.706,2240203.899,88.358,3.270763425,0.255881980,-0.016219337,0.005954836,0.130168029,3.278243745,-2.258929855,0.283255326,4.473315422,177.726171135,-0.103994222,-4.480922102
248568.225941000,181204_214217285.jpg,6035419.386,2240203.806,88.311,3.271187625,0.250693130,-0.010735127,0.000877823,0.127391304,3.278358313,-2.217768889,0.187478387,4.382395160,177.774704465,-0.015330277,-4.386281114
248568.437889000,181204_214217497.jpg,6035410.085,2240203.756,88.264,3.271520135,0.246531423,-0.002686663,-0.007887658,0.138830218,3.277884696,-2.428886373,0.046919841,4.309483917,177.574766245,0.137748832,-4.307519246
248568.649882000,181204_214217710.jpg,6035400.837,2240203.705,88.175,3.272070075,0.239133085,-0.001222994,-0.009065192,0.139193526,3.277866281,-2.436820230,0.021358342,4.179922952,177.568413340,0.158312936,-4.176973740
248568.861876000,181204_214217922.jpg,6035391.613,2240203.642,88.111,3.272504897,0.233101927,0.001799102,-0.011108676,0.129001658,3.278277052,-2.261702894,-0.031419482,4.074321507,177.746547680,0.193999974,-4.069845324
248569.073870000,181204_214218135.jpg,6035382.420,2240203.641,88.036,3.272984735,0.226248435,0.003209269,-0.012911223,0.138583160,3.277879393,-2.430877753,-0.056046626,3.954339197,177.579073013,0.225479453,-3.948342479
248569.285863000,181204_214218347.jpg,6035373.275,2240203.625,87.965,3.273596629,0.217196140,-0.004543724,-0.004214952,0.130336641,3.278240106,-2.276828322,0.079351542,3.795889158,177.723226243,0.073609206,-3.795962210
248569.497857000,181204_214218560.jpg,6035364.147,2240203.664,87.905,3.274036276,0.210354353,-0.008253976,-0.000704026,0.137748728,3.277939483,-2.402340708,0.144147427,3.676157676,177.593676276,0.012295075,-3.678878297
248569.709851000,181204_214218772.jpg,6035355.028,2240203.716,87.866,3.274432326,0.204257314,-0.000878813,-0.007635004,0.134618206,3.278060993,-2.355534910,0.015347573,3.569454655,177.648388281,0.133336249,-3.566991533
248569.921845000,181204_214218984.jpg,6035346.009,2240203.778,87.782,3.274724565,0.198095161,-0.023911221,0.015691887,0.134326956,3.278043448,-2.325859381,0.417588721,3.461727042,177.653457870,-0.274041123,-3.475772751
248570.133838000,181204_214219197.jpg,6035336.896,2240203.858,87.790,3.275038504,0.194194477,0.006214555,-0.014402902,0.136024775,3.277980407,-2.387115014,-0.108530956,3.393398679,177.623787324,0.251530187,-3.385878838
248570.345832000,181204_214219409.jpg,6035327.944,2240203.957,87.698,3.275157874,0.191582815,-0.016421211,0.008381348,0.135678003,3.278014894,-2.357721118,0.286780886,3.347744662,177.629862945,-0.146370443,-3.356630210
248570.557826000,181204_214219622.jpg,6035318.978,2240204.064,87.661,3.275235590,0.190010520,-0.019006330,0.010705795,0.141303497,3.277770340,-2.453670408,0.331927998,3.320253283,177.531527270,-0.186964141,-3.331344393
248570.769820000,181204_214219834.jpg,6035310.025,2240204.172,87.644,3.275326295,0.188988679,-0.012359627,0.004004298,0.142925266,3.277715293,-2.488823876,0.215848780,3.302345946,177.503190147,-0.069930393,-3.308512865
248571.001813000,181204_214220067.jpg,6035300.330,2240204.291,87.573,3.275326961,0.187010355,-0.029940833,0.021773702,0.141359156,3.277712713,-2.443915786,0.522893257,3.267851809,177.530512899,-0.380254454,-3.287154734
248571.233806000,181204_214220299.jpg,6035290.567,2240204.428,87.584,3.275572849,0.184987317,-0.005706006,-0.002746966,0.147660848,3.277506876,-2.578391635,0.099649624,3.232334120,177.420408512,0.047972705,-3.233450029
248571.465799000,181204_214220532.jpg,6035280.922,2240204.537,87.510,3.275640205,0.183443284,-0.012722420,0.004691447,0.141456949,3.277778059,-2.462887598,0.222184642,3.205345532,177.528855749,-0.081930362,-3.211843605
