Timestamp,Filename,Origin (Easting[ftUS],Northing[ftUS],Height[ftUS]),Direction (Easting,Northing,Height),Up (Easting,Northing,Height),Roll(X)[deg],Pitch(Y)[deg],Yaw(Z)[deg],Omega[deg],Phi[deg],Kappa[deg]
158922.315098000,181203_204751116.jpg,6037127.058,2240151.235,93.797,-3.278188444,-0.130049130,-0.013667052,-0.008838132,-0.124781616,3.278448527,-2.171656572,0.238681955,-177.728208375,-177.820306488,0.154347591,177.720707331
158922.731085000,181203_204751532.jpg,6037136.579,2240150.978,93.780,-3.278082634,-0.131772644,-0.020678624,-0.015959377,-0.120465303,3.278583274,-2.091160812,0.361133697,-177.698058751,-177.895721513,0.278712469,177.686309067
158923.137428000,181203_204751939.jpg,6037145.759,2240150.673,93.785,-3.277901028,-0.136323880,-0.019954997,-0.014321701,-0.138337814,3.277885379,-2.403943024,0.348496041,-177.618511260,-177.583358070,0.250111857,177.605878113
158923.571691000,181203_204752374.jpg,6037155.433,2240150.366,93.795,-3.277570205,-0.144696135,-0.014677005,-0.008104954,-0.151565096,3.277321505,-2.638838126,0.256319919,-177.472182875,-177.352148655,0.141543351,177.462958352
158924.006513000,181203_204752809.jpg,6037164.935,2240150.099,93.747,-3.277031556,-0.155415698,-0.022956624,-0.015532490,-0.159061324,3.276939745,-2.762746223,0.400917558,-177.284738855,-177.221066438,0.271257317,177.268439222
158924.441708000,181203_204753245.jpg,6037174.290,2240149.918,93.666,-3.275651966,-0.171072611,-0.066670053,-0.058714194,-0.155005745,3.276646443,-2.650610948,1.164405959,-177.010414466,-177.291571663,1.025426547,176.959179823
158924.877136000,181203_204753681.jpg,6037184.027,2240149.805,93.755,-3.275445636,-0.180439301,-0.050079443,-0.042368160,-0.142710283,3.277456417,-2.448378967,0.874621216,-176.846850043,-177.506744023,0.739928650,176.812009029
158925.312843000,181203_204754117.jpg,6037194.072,2240149.629,93.797,-3.275481976,-0.181941641,-0.041562784,-0.033064195,-0.155499701,3.276981313,-2.680234208,0.725871678,-176.820685708,-177.283231219,0.577435708,176.789959973
158925.748690000,181203_204754553.jpg,6037204.460,2240149.516,93.817,-3.275504487,-0.180848516,-0.044450263,-0.036613422,-0.144586307,3.277443319,-2.486560058,0.776302972,-176.839770219,-177.474000676,0.639422208,176.808775964
158926.163631000,181203_204754969.jpg,6037214.806,2240149.346,93.845,-3.275573988,-0.179939500,-0.042998247,-0.034792178,-0.151934923,3.277130690,-2.616792022,0.750942705,-176.855689409,-177.345542571,0.607614252,176.824408978
158926.541573000,181203_204755347.jpg,6037224.665,2240149.208,93.859,-3.275719066,-0.179424082,-0.032954287,-0.024799475,-0.151354660,3.277248033,-2.616336788,0.575523131,-176.864816543,-177.355760560,0.433096871,176.841627784
158926.965514000,181203_204755771.jpg,6037236.148,2240148.994,93.838,-3.275671283,-0.180174678,-0.033600227,-0.024612109,-0.165755985,3.276552666,-2.867798077,0.586804411,-176.851681427,-177.103958899,0.429824631,176.826072565
158927.340502000,181203_204756147.jpg,6037246.676,2240148.897,93.819,-3.275613323,-0.178443470,-0.046114532,-0.037659603,-0.157715866,3.276825986,-2.715325370,0.805370530,-176.881817002,-177.244440899,0.657693644,176.846857659
158927.687492000,181203_204756494.jpg,6037256.778,2240148.835,93.842,-3.275726339,-0.178935906,-0.034825478,-0.027559169,-0.135646720,3.277913743,-2.339620009,0.608203368,-176.873336712,-177.630335499,0.481293188,176.850917547
158928.068480000,181203_204756875.jpg,6037268.098,2240148.727,93.849,-3.276011583,-0.172259413,-0.041076016,-0.034579018,-0.126366658,3.278218308,-2.172442340,0.717370088,-176.990042327,-177.792491150,0.603891629,176.964762373
158928.402470000,181203_204757210.jpg,6037278.241,2240148.547,93.875,-3.276131349,-0.169865077,-0.041491949,-0.034858909,-0.130710050,3.278045060,-2.248520318,0.724634520,-177.031912490,-177.716574566,0.608779710,177.005514614
158928.733460000,181203_204757541.jpg,6037288.475,2240148.352,93.904,-3.276351594,-0.165996683,-0.039724641,-0.033032618,-0.134821404,3.277897409,-2.322755428,0.693767896,-177.099583619,-177.644725373,0.576884234,177.073614357
158929.064404000,181203_204757872.jpg,6037298.840,2240148.132,93.932,-3.276513001,-0.163051644,-0.038595937,-0.031404334,-0.147131986,3.277383909,-2.539712932,0.674054795,-177.151096075,-177.429538674,0.548446769,177.123799923
158929.395394000,181203_204758204.jpg,6037309.313,2240147.905,93.945,-3.276362785,-0.166574256,-0.036240302,-0.028487288,-0.155004969,3.277047569,-2.679035142,0.632913310,-177.089519080,-177.291916327,0.497502145,177.062908046
158929.706384000,181203_204758515.jpg,6037319.241,2240147.742,93.964,-3.275927650,-0.175085647,-0.035449892,-0.027467970,-0.151851376,3.277203863,-2.623278348,0.619108759,-176.940673213,-177.347059300,0.479700316,176.915339309
158930.017422000,181203_204758826.jpg,6037329.204,2240147.565,93.948,-3.275205015,-0.183406698,-0.054801027,-0.045568891,-0.167313236,3.276249836,-2.873913689,0.957089536,-176.794867477,-177.076527969,0.795830735,176.750493766
158930.328412000,181203_204759138.jpg,6037339.351,2240147.473,94.007,-3.274931836,-0.191784482,-0.040651512,-0.032101332,-0.148559816,3.277312780,-2.557907756,0.709955989,-176.648508625,-177.404571869,0.560619652,176.619908392
158930.639403000,181203_204759449.jpg,6037349.602,2240147.379,94.044,-3.274239414,-0.204558580,-0.033556616,-0.024120918,-0.153436208,3.277156275,-2.648902674,0.586042765,-176.425084207,-177.319372578,0.421246372,176.401627703
158930.950393000,181203_204759760.jpg,6037359.936,2240147.298,94.044,-3.273802428,-0.206920332,-0.054868751,-0.044693602,-0.163585188,3.276450117,-2.802876021,0.958272446,-176.383437158,-177.141733643,0.780543342,176.340464452
158931.261384000,181203_204800072.jpg,6037370.473,2240147.233,94.096,-3.273825865,-0.208236489,-0.048085337,-0.037841632,-0.163561584,3.276537340,-2.809685963,0.839792239,-176.360520917,-177.142221173,0.660872762,176.323385870
158931.572375000,181203_204800383.jpg,6037381.134,2240147.191,94.164,-3.274391677,-0.203180941,-0.026311188,-0.016859804,-0.154614916,3.277146022,-2.677579349,0.459503325,-176.449263059,-177.298801995,0.294437347,176.431531475
158931.863366000,181203_204800674.jpg,6037391.010,2240147.193,94.138,-3.274290724,-0.198708471,-0.056069039,-0.048174854,-0.133040140,3.277783171,-2.268600740,0.979237277,-176.527122525,-177.675728142,0.841345242,176.490620077
158932.154357000,181203_204800966.jpg,6037401.008,2240147.124,94.203,-3.274847325,-0.191801446,-0.046881209,-0.038988986,-0.137505320,3.277720706,-2.357961156,0.818761140,-176.648126550,-177.597763549,0.680911151,176.616952890
158932.445348000,181203_204801257.jpg,6037410.863,2240147.058,94.231,-3.274478654,-0.188753805,-0.075929452,-0.069036552,-0.122985275,3.277803564,-2.075145523,1.326150534,-176.700897206,-177.851233074,1.205727885,176.654221865
158932.736339000,181203_204801548.jpg,6037420.786,2240146.985,94.368,-3.274996945,-0.184906989,-0.061736297,-0.055645641,-0.111158510,3.278480054,-1.883561690,1.078226308,-176.768499539,-178.058100942,0.971829806,176.734264526
158933.027331000,181203_204801840.jpg,6037430.672,2240146.957,94.511,-3.275621786,-0.180264623,-0.037671606,-0.033303244,-0.082402682,3.279630879,-1.404902780,0.657911211,-176.850065413,-178.560711758,0.581610791,176.834664745
158933.318322000,181203_204802131.jpg,6037440.409,2240146.813,94.568,-3.275779673,-0.178013587,-0.034524097,-0.029692993,-0.091821830,3.279415266,-1.573086563,0.602939777,-176.889471798,-178.396168187,0.518559241,176.873904300
158933.609313000,181203_204802422.jpg,6037450.086,2240146.689,94.622,-3.275948934,-0.177237208,-0.019038463,-0.014655690,-0.083648006,3.279735019,-1.444834008,0.332489421,-176.903171126,-178.539016041,0.255944774,176.895687268
158933.900304000,181203_204802713.jpg,6037459.711,2240146.488,94.619,-3.276262149,-0.171914119,-0.013045095,-0.007598915,-0.106310095,3.279102457,-1.847224091,0.227820009,-176.996294034,-178.143092681,0.132706096,176.990435638
158934.191295000,181203_204803005.jpg,6037469.430,2240146.291,94.603,-3.275980274,-0.177685207,-0.001538208,0.004649604,-0.116343011,3.278766919,-2.033469652,0.026863251,-176.895388282,-177.967781729,-0.081199698,176.896314191
158934.482287000,181203_204803296.jpg,6037479.242,2240146.111,94.512,-3.275362594,-0.188724193,-0.002039429,0.005269350,-0.128981536,3.278293174,-2.254498699,0.035616558,-176.702301872,-177.746909737,-0.092022834,176.703368918
158934.773278000,181203_204803587.jpg,6037489.115,2240145.990,94.396,-3.274734070,-0.194720437,-0.042569976,-0.034487142,-0.138611019,3.277724441,-2.381194286,0.743462760,-176.597116569,-177.578472420,0.602287048,176.568889123
158935.064269000,181203_204803879.jpg,6037499.246,2240145.859,94.402,-3.274127916,-0.205320616,-0.039269332,-0.030255915,-0.146284038,3.277432619,-2.517266067,0.685815809,-176.411679542,-177.444371025,0.528390226,176.384776285
158935.355260000,181203_204804170.jpg,6037509.525,2240145.773,94.411,-3.273645369,-0.212807681,-0.039636110,-0.029980782,-0.151047545,3.277219080,-2.599100301,0.692221694,-176.280644692,-177.361095294,0.523585320,176.252831283
158935.646298000,181203_204804461.jpg,6037519.940,2240145.713,94.430,-3.273244691,-0.217269530,-0.047679792,-0.037286586,-0.159161083,3.276760372,-2.731230114,0.832709064,-176.202424905,-177.219174246,0.651178804,176.166714781
158935.937289000,181203_204804753.jpg,6037530.557,2240145.603,94.468,-3.273427396,-0.216165591,-0.039467049,-0.027533643,-0.182932685,3.275615493,-3.157544243,0.689268987,-176.221874480,-176.803532727,0.480847224,176.189399867
158936.228281000,181203_204805044.jpg,6037541.282,2240145.538,94.463,-3.273622015,-0.211292099,-0.048625940,-0.036721603,-0.186689625,3.275313751,-3.213790194,0.849234375,-176.307033510,-176.737726548,0.641311567,176.264885210
158936.498272000,181203_204805314.jpg,6037551.416,2240145.491,94.501,-3.274262446,-0.204038577,-0.034453493,-0.023039079,-0.185315957,3.275516080,-3.206570762,0.601706669,-176.434173456,-176.761878753,0.402352726,176.405897656
158936.768218000,181203_204805584.jpg,6037561.557,2240145.394,94.498,-3.274671295,-0.194826301,-0.046701469,-0.035458582,-0.191088746,3.275073931,-3.296147532,0.815621855,-176.595205748,-176.660782927,0.619252982,176.553623884
158937.038209000,181203_204805855.jpg,6037571.763,2240145.251,94.528,-3.275230240,-0.185899979,-0.043808051,-0.032433121,-0.202334972,3.274429672,-3.497792160,0.765086390,-176.751413683,-176.464049258,0.566414187,176.710501685
158937.308201000,181203_204806125.jpg,6037582.002,2240145.085,94.561,-3.275728785,-0.178026319,-0.038983708,-0.027700962,-0.209445158,3.274025865,-3.628345154,0.680827320,-176.889201546,-176.339675352,0.483769359,176.852109337
158937.578193000,181203_204806395.jpg,6037592.201,2240144.926,94.570,-3.275812029,-0.171794655,-0.056126846,-0.045205453,-0.209879695,3.273803795,-3.621182197,0.980247000,-176.997965824,-176.331853801,0.789482987,176.941626856
158937.848185000,181203_204806665.jpg,6037602.494,2240144.795,94.633,-3.276143101,-0.169277119,-0.042927699,-0.033053390,-0.193135158,3.274978961,-3.340331908,0.749710572,-177.042178325,-176.625006925,0.577247085,177.003247017
158938.118223000,181203_204806936.jpg,6037612.805,2240144.622,94.667,-3.276465719,-0.165355491,-0.032304669,-0.022761310,-0.191233092,3.275177888,-3.317071645,0.564177677,-177.110868434,-176.658371604,0.397501826,177.082873941
158938.388215000,181203_204807206.jpg,6037623.118,2240144.392,94.673,-3.276434151,-0.165571968,-0.034327377,-0.023861176,-0.209005657,3.274084067,-3.626617369,0.599504078,-177.107064706,-176.347400404,0.416710001,177.074728591
158938.658254000,181203_204807476.jpg,6037633.399,2240144.188,94.655,-3.275633504,-0.175437130,-0.055273267,-0.043688652,-0.217804760,3.273306667,-3.760002228,0.965337934,-176.934268594,-176.193167998,0.762991618,176.877151715
158938.928246000,181203_204807747.jpg,6037643.795,2240144.080,94.718,-3.274986197,-0.190683908,-0.041430569,-0.029616512,-0.204823821,3.274301519,-3.543009812,0.723562535,-176.667753203,-176.420527507,0.517223382,176.629144530
158939.198237000,181203_204808017.jpg,6037654.188,2240143.997,94.744,-3.274357465,-0.201882174,-0.037934661,-0.025755582,-0.199545686,3.274659909,-3.452498418,0.662505502,-176.471865688,-176.512917501,0.449794446,176.438141259
158939.468183000,181203_204808287.jpg,6037664.591,2240143.932,94.757,-3.273889671,-0.210177660,-0.032942301,-0.020273209,-0.199351879,3.274710037,-3.453570850,0.575313839,-176.326757717,-176.516348994,0.354049251,176.298581343
158939.738175000,181203_204808557.jpg,6037674.982,2240143.894,94.752,-3.273594828,-0.215135276,-0.030129491,-0.017385507,-0.195943397,3.274932242,-3.396505225,0.526188650,-176.240022232,-176.576000792,0.303618245,176.215282111
158940.008120000,181203_204808828.jpg,6037685.335,2240143.858,94.741,-3.273644631,-0.213360717,-0.036613731,-0.023875043,-0.197501806,3.274797997,-3.416611536,0.639435304,-176.271005394,-176.548693002,0.416952204,176.239307501
158940.278112000,181203_204809098.jpg,6037695.703,2240143.851,94.762,-3.273864161,-0.210992061,-0.030163341,-0.018482015,-0.183384163,3.275653508,-3.176693516,0.526779836,-176.312535105,-176.795697354,0.322767862,176.288839649
158940.548103000,181203_204809368.jpg,6037706.009,2240143.798,94.768,-3.274007021,-0.207853592,-0.035883025,-0.024037052,-0.188718381,3.275314681,-3.264156918,0.626673475,-176.367395580,-176.702354107,0.419781544,176.337393579
158940.818095000,181203_204809638.jpg,6037716.281,2240143.771,94.784,-3.274231560,-0.205314306,-0.029460995,-0.018367507,-0.179077761,3.275892377,-3.102555540,0.514513544,-176.411902812,-176.871019978,0.320767911,176.389148797
158941.088087000,181203_204809909.jpg,6037726.442,2240143.714,94.781,-3.274183718,-0.204591379,-0.038411134,-0.027555353,-0.176001549,3.275995016,-3.038951471,0.670827202,-176.424451830,-176.924762072,0.481226266,176.393681186
158941.358079000,181203_204810179.jpg,6037736.579,2240143.671,94.820,-3.274443475,-0.202352480,-0.026236615,-0.016019366,-0.167559980,3.276513894,-2.904512740,0.458200961,-176.463760006,-177.072459797,0.279759959,176.444939746
158941.628071000,181203_204810449.jpg,6037746.599,2240143.609,94.835,-3.274976851,-0.193767480,-0.024416646,-0.014831915,-0.164256943,3.276686663,-2.849274587,0.426416072,-176.613981792,-177.130222559,0.259022362,176.596834448
158941.898063000,181203_204810719.jpg,6037756.497,2240143.512,94.830,-3.275330490,-0.185423374,-0.037953748,-0.028725945,-0.165377878,3.276538442,-2.856187931,0.662838879,-176.759823524,-177.110541083,0.501670100,176.730590961
158942.168055000,181203_204810990.jpg,6037766.363,2240143.395,94.863,-3.275439033,-0.184316927,-0.033756603,-0.024777719,-0.161944668,3.276742006,-2.800355072,0.589535541,-176.779223789,-177.170602370,0.432717014,176.754073403
158942.438046000,181203_204811260.jpg,6037776.127,2240143.297,94.885,-3.275566258,-0.181194469,-0.038030428,-0.029506776,-0.156561357,3.276964606,-2.702369476,0.664178106,-176.833796751,-177.264696638,0.515306866,176.805775145
158942.708038000,181203_204811530.jpg,6037785.836,2240143.176,94.920,-3.275759215,-0.179047462,-0.030940276,-0.022603920,-0.154958449,3.277095426,-2.681409122,0.540348806,-176.871422635,-177.292767574,0.394753158,176.849396855
158942.978077000,181203_204811801.jpg,6037795.422,2240143.051,94.935,-3.275766751,-0.177760051,-0.036957004,-0.029008814,-0.149015955,3.277320791,-2.571817251,0.645430602,-176.893881073,-177.396620003,0.506610288,176.867831239
158943.248068000,181203_204812071.jpg,6037804.981,2240142.917,94.977,-3.276051848,-0.175098713,-0.020994936,-0.013351989,-0.145445801,3.277581765,-2.524628597,0.366657913,-176.940561128,-177.459111503,0.233176873,176.927262382
158943.518107000,181203_204812341.jpg,6037814.421,2240142.743,94.977,-3.276177944,-0.170872624,-0.032770361,-0.024825341,-0.154820576,3.277085943,-2.678319207,0.572310920,-177.014381549,-177.295164681,0.433548412,176.990715226
158943.788145000,181203_204812612.jpg,6037823.871,2240142.559,94.987,-3.276537581,-0.165370871,-0.023861077,-0.015790415,-0.162336737,3.276777911,-2.818486180,0.416713346,-177.110663433,-177.163794743,0.275761308,177.093531236
158944.058184000,181203_204812882.jpg,6037833.254,2240142.373,94.972,-3.277123092,-0.151848537,-0.031932613,-0.024481185,-0.163323246,3.276675805,-2.830378369,0.557679788,-177.347044495,-177.146499122,0.427538003,177.322563751
158944.328222000,181203_204813152.jpg,6037842.625,2240142.165,94.965,-3.277607574,-0.140073139,-0.035785460,-0.029111721,-0.158790015,3.276860896,-2.749716838,0.624969505,-177.552873893,-177.225731872,0.508407343,177.525509258
158944.598261000,181203_204813423.jpg,6037852.009,2240141.899,94.979,-3.278280986,-0.124232391,-0.032456626,-0.026433166,-0.161726616,3.276739900,-2.805786437,0.566831587,-177.829781122,-177.174404445,0.461627978,177.804459550
158944.868299000,181203_204813693.jpg,6037861.392,2240141.609,94.998,-3.279113047,-0.101116901,-0.028412851,-0.023691307,-0.156434319,3.277017674,-2.718702454,0.496208061,-178.233749112,-177.266956955,0.413743351,178.212051507
158945.138338000,181203_204813963.jpg,6037870.739,2240141.244,94.996,-3.279797339,-0.072490498,-0.035875379,-0.032542611,-0.154852427,3.277017179,-2.691860200,0.626539939,-178.733847532,-177.294552187,0.568326306,178.705652853
158945.408329000,181203_204814233.jpg,6037880.105,2240140.774,95.001,-3.280432091,-0.034798085,-0.034165379,-0.032569336,-0.158265588,3.276853865,-2.758548164,0.596674785,-179.392242071,-177.234874525,0.568793148,179.364092911
158945.678228000,181203_204814504.jpg,6037889.470,2240140.211,95.020,-3.280644977,0.008411828,-0.030192414,-0.030675723,-0.154635523,3.277045363,-2.702615062,0.527287579,179.853089503,-177.298359647,0.535722126,-179.878213954
158945.948173000,181203_204814774.jpg,6037898.800,2240139.495,95.012,-3.280242211,0.050467148,-0.032822352,-0.035402143,-0.162251875,3.276629626,-2.843576320,0.573218941,179.118563110,-177.165147040,0.618267306,-179.148145644
158946.218119000,181203_204815044.jpg,6037908.118,2240138.735,95.022,-3.279422599,0.089449532,-0.031618182,-0.035756866,-0.148103659,3.277295714,-2.603084055,0.552188297,178.437587682,-177.412516906,0.624462613,-178.464288760
158946.488110000,181203_204815314.jpg,6037917.418,2240137.829,95.028,-3.278555210,0.119080857,-0.022608162,-0.028133108,-0.149054636,3.277326639,-2.619743698,0.394831906,177.919866473,-177.395949778,0.491316710,-177.940112899
158946.758102000,181203_204815585.jpg,6037926.674,2240136.779,95.040,-3.277872685,0.136309499,-0.024199515,-0.031573563,-0.174782436,3.276024165,-3.073760560,0.422623987,177.618741623,-176.946050196,0.551402501,-177.644839519
158947.028048000,181203_204815855.jpg,6037935.860,2240135.695,95.026,-3.278127150,0.129517487,-0.026873937,-0.034738700,-0.196739942,3.274747021,-3.458855147,0.469331518,177.737443561,-176.561920878,0.606680509,-177.769889543
158947.297993000,181203_204816125.jpg,6037945.020,2240134.676,95.023,-3.278946265,0.108604598,-0.018251383,-0.025057118,-0.202614487,3.274476879,-3.552911844,0.318743649,178.102954247,-176.459228050,0.437596374,-178.126433503
158947.567985000,181203_204816395.jpg,6037954.123,2240133.722,95.016,-3.279857144,0.077741498,-0.010576973,-0.015704620,-0.212074653,3.273935700,-3.711374548,0.184716483,178.642189077,-176.293747188,0.274263078,-178.657117071
158947.837977000,181203_204816666.jpg,6037963.146,2240132.899,94.970,-3.280458661,0.045575140,-0.011497528,-0.014498401,-0.208944747,3.274142449,-3.654322905,0.200793136,179.204045704,-176.348526693,0.253197875,-179.218590661
158948.127968000,181203_204816956.jpg,6037972.794,2240132.118,94.897,-3.280733191,0.007958598,-0.018522559,-0.019103744,-0.204815755,3.274379860,-3.579723207,0.323479538,179.861008766,-176.420753433,0.333625467,-179.881609636
158948.417959000,181203_204817246.jpg,6037982.457,2240131.438,94.859,-3.280542971,-0.029292805,-0.028180930,-0.026369327,-0.210044253,3.273998448,-3.666173308,0.492157641,-179.488404964,-176.329203381,0.460513298,179.457826042
158948.707950000,181203_204817537.jpg,6037992.150,2240130.888,94.838,-3.279877288,-0.069885582,-0.033676060,-0.029364427,-0.205297783,3.274274110,-3.575646618,0.588128861,-178.779361923,-176.412236331,0.512820787,178.744873635
158948.997941000,181203_204817827.jpg,6038001.833,2240130.432,94.825,-3.278624709,-0.106853265,-0.053017478,-0.046232699,-0.209475433,3.273815371,-3.632237437,0.925937471,-178.133340823,-176.338912840,0.807424458,178.078103559
158949.287933000,181203_204818117.jpg,6038011.646,2240130.098,94.882,-3.277535426,-0.140303560,-0.041081374,-0.032253770,-0.208016523,3.274075430,-3.607558178,0.717463713,-177.548799384,-176.364630256,0.563281848,177.508258609
158949.577924000,181203_204818407.jpg,6038021.484,2240129.890,94.907,-3.276585102,-0.159146228,-0.047667515,-0.038388604,-0.193022250,3.274927624,-3.336132960,0.832494660,-177.219285762,-176.626922579,0.670425431,177.175236375
158949.867915000,181203_204818698.jpg,6038031.403,2240129.665,94.939,-3.275919627,-0.171139803,-0.051675835,-0.041116591,-0.203918173,3.274234255,-3.520940225,0.902504028,-177.009486305,-176.436240397,0.718069876,176.959338656
158950.157906000,181203_204818988.jpg,6038041.432,2240129.548,94.993,-3.275620745,-0.179073993,-0.043033280,-0.032863350,-0.188151718,3.275270939,-3.251211926,0.751554624,-176.870827949,-176.712190363,0.573928088,176.832964170
158950.447944000,181203_204819278.jpg,6038051.522,2240129.407,95.014,-3.275133500,-0.188411670,-0.040160865,-0.029401777,-0.189147789,3.275246354,-3.269929188,0.701386713,-176.707520978,-176.694798414,0.513473268,176.672623327
158950.737935000,181203_204819569.jpg,6038061.695,2240129.327,95.046,-3.274779080,-0.195401420,-0.035392501,-0.024928285,-0.177608313,3.275929249,-3.071610243,0.618106464,-176.585290815,-176.896679903,0.435346547,176.556866523
158951.028020000,181203_204819859.jpg,6038071.944,2240129.170,95.065,-3.274513398,-0.200016094,-0.034179729,-0.022028383,-0.200928836,3.274602399,-3.481006934,0.596925414,-176.504562491,-176.488745736,0.384701873,176.474565476
158951.318011000,181203_204820149.jpg,6038082.239,2240129.045,95.060,-3.274207958,-0.204274438,-0.038025296,-0.024805152,-0.213755500,3.273770423,-3.701211730,0.664088485,-176.430002888,-176.264266894,0.433196086,176.394347615
158951.607956000,181203_204820440.jpg,6038092.582,2240128.962,95.048,-3.274069082,-0.205779914,-0.041679535,-0.027894516,-0.221085386,3.273258858,-3.825546925,0.727910843,-176.403609122,-176.135944626,0.487149511,176.362792599
158951.897947000,181203_204820730.jpg,6038102.903,2240128.994,95.056,-3.273249109,-0.210239142,-0.072410480,-0.060173964,-0.192852159,3.274610609,-3.295336539,1.264679497,-176.324969083,-176.629562728,1.050923608,176.257603716
158952.187892000,181203_204821020.jpg,6038113.452,2240128.974,95.180,-3.273494926,-0.214164649,-0.044435892,-0.032003634,-0.192195782,3.275044622,-3.314544144,0.776052024,-176.256823906,-176.641451721,0.558913468,176.217920412
158952.477836000,181203_204821310.jpg,6038124.044,2240128.913,95.224,-3.273644661,-0.214265407,-0.030891277,-0.018126507,-0.197053478,3.274861658,-3.415178045,0.539493071,-176.255238669,-176.556575273,0.316559082,176.229574931
158952.767828000,181203_204821601.jpg,6038134.600,2240128.783,95.205,-3.273523517,-0.214679402,-0.039595030,-0.025101977,-0.222774925,3.273166817,-3.856262193,0.691504253,-176.247885382,-176.106396940,0.438379665,176.209630912
158953.037819000,181203_204821871.jpg,6038144.457,2240128.720,95.213,-3.273571827,-0.214004529,-0.039253982,-0.024181162,-0.232221571,3.272517102,-4.022470932,0.685547754,-176.259702165,-175.941028396,0.422298556,176.220586088
158953.307811000,181203_204822141.jpg,6038154.294,2240128.821,95.242,-3.273154223,-0.221012860,-0.035028904,-0.022548332,-0.186989453,3.275424365,-3.233192790,0.611756242,-176.137086561,-176.732608789,0.393782362,176.108528130
158953.577803000,181203_204822411.jpg,6038164.050,2240128.862,95.271,-3.272493102,-0.228510097,-0.046706271,-0.034753497,-0.173636072,3.276053045,-2.983931652,0.815705763,-176.005661032,-176.966069776,0.606938834,175.968284217
158953.847795000,181203_204822682.jpg,6038173.924,2240129.030,95.368,-3.273166350,-0.223609468,0.001344157,0.009170347,-0.116314106,3.278758256,-2.037774670,-0.023474343,-176.091856706,-177.968280921,-0.160149213,176.095076230
158954.117787000,181203_204822952.jpg,6038183.614,2240128.935,95.356,-3.272983462,-0.224916330,-0.024629016,-0.013976765,-0.157224149,3.277035350,-2.723437539,0.430125008,-176.068868424,-177.253194138,0.244087928,176.052740221
158954.387779000,181203_204823222.jpg,6038193.290,2240128.937,95.347,-3.273399636,-0.217067276,-0.036720527,-0.026712506,-0.153382905,3.277138776,-2.642717683,0.641300518,-176.206128763,-177.320288343,0.466506617,176.180373777
158954.657817000,181203_204823493.jpg,6038202.996,2240128.944,95.361,-3.273939398,-0.209603939,-0.031622803,-0.022674746,-0.142224036,3.277672240,-2.454010165,0.552269016,-176.336812703,-177.515392042,0.395990068,176.316349050
158954.927856000,181203_204823763.jpg,6038212.693,2240128.866,95.381,-3.274258952,-0.204624430,-0.031148458,-0.021788750,-0.152161487,3.277231968,-2.629193905,0.543984682,-176.423957672,-177.341671970,0.380517036,176.402594588
158955.197987000,181203_204824033.jpg,6038222.392,2240128.763,95.377,-3.274591305,-0.198407964,-0.036027615,-0.026360265,-0.161941188,3.276729888,-2.796058831,0.629198766,-176.532679261,-177.170652875,0.460355050,176.505900488
158955.468072000,181203_204824304.jpg,6038232.162,2240128.706,95.406,-3.274942663,-0.195364770,-0.014155414,-0.005430549,-0.148480218,3.277468127,-2.583509940,0.247210803,-176.586099915,-177.406083133,0.094837837,176.578329420
158955.738064000,181203_204824574.jpg,6038241.843,2240128.589,95.377,-3.274842749,-0.193102879,-0.041555192,-0.032086676,-0.163013246,3.276625878,-2.809892265,0.725739140,-176.625430709,-177.151862855,0.560363822,176.593645758
158956.008056000,181203_204824844.jpg,6038251.620,2240128.534,95.403,-3.274916750,-0.193754637,-0.031502753,-0.022962540,-0.146815230,3.277467830,-2.536474046,0.550172365,-176.614143704,-177.435130884,0.401016167,176.592937034
158956.278048000,181203_204825114.jpg,6038261.389,2240128.407,95.412,-3.274861069,-0.193621341,-0.037513851,-0.028373680,-0.157048664,3.276951263,-2.709505098,0.655156022,-176.616410239,-177.256184673,0.495518022,176.588996203
158956.547993000,181203_204825385.jpg,6038271.201,2240128.306,95.437,-3.274852310,-0.195397448,-0.027857104,-0.018620281,-0.157151939,3.277015895,-2.721109315,0.486502157,-176.585436248,-177.254437300,0.325182281,176.566036459
158956.817892000,181203_204825655.jpg,6038280.988,2240128.234,95.444,-3.274879986,-0.194287809,-0.032033586,-0.022968196,-0.155212046,3.277080896,-2.682915520,0.559443267,-176.604810281,-177.288331425,0.401114809,176.582164065
158957.087837000,181203_204825925.jpg,6038290.780,2240128.154,95.452,-3.274767932,-0.195429192,-0.036251316,-0.027405378,-0.150722445,3.277256502,-2.599748477,0.633105713,-176.584795047,-177.366796966,0.478607326,176.559378549
158957.357829000,181203_204826195.jpg,6038300.597,2240128.085,95.469,-3.274599118,-0.199466911,-0.028760043,-0.020174897,-0.143372114,3.277638473,-2.478397306,0.502271666,-176.514227224,-177.495334827,0.352332339,176.495612043
158957.627914000,181203_204826466.jpg,6038310.400,2240128.011,95.490,-3.274424292,-0.202401416,-0.028159248,-0.019267200,-0.146249938,3.277516769,-2.529135587,0.491778988,-176.462886314,-177.445031482,0.336480123,176.444478269
158957.897906000,181203_204826736.jpg,6038320.153,2240127.957,95.493,-3.274568600,-0.198138416,-0.039403240,-0.030987348,-0.141697968,3.277627280,-2.437973737,0.688154597,-176.537354394,-177.524536731,0.541164412,176.510970976
158958.167851000,181203_204827006.jpg,6038329.910,2240127.851,95.525,-3.274864150,-0.193034912,-0.040163286,-0.031549115,-0.148705296,3.277311537,-2.560745353,0.701429007,-176.626637725,-177.402032593,0.550975543,176.598416682
158958.437843000,181203_204827277.jpg,6038339.635,2240127.759,95.559,-3.275295923,-0.186408549,-0.036058149,-0.027884142,-0.146170052,3.277458665,-2.521553268,0.629732037,-176.742610768,-177.446379857,0.486968540,176.717848286
158958.707881000,181203_204827547.jpg,6038349.324,2240127.640,95.589,-3.275813455,-0.177847227,-0.032081142,-0.024345132,-0.145036577,3.277537089,-2.506759566,0.560273840,-176.892404986,-177.466216510,0.425162222,176.870695318
158958.977920000,181203_204827817.jpg,6038358.924,2240127.465,95.622,-3.275893623,-0.174434857,-0.041277632,-0.032946720,-0.158946353,3.276817149,-2.742176438,0.720891469,-176.951991608,-177.222968279,0.575384040,176.920736654
158959.247865000,181203_204828087.jpg,6038368.469,2240127.308,95.663,-3.276025858,-0.173044165,-0.036357592,-0.027994578,-0.160777125,3.276773722,-2.779015262,0.634961846,-176.976368579,-177.190995532,0.488897088,176.948925662
158959.517810000,181203_204828358.jpg,6038377.912,2240127.141,95.691,-3.276067306,-0.171777552,-0.038554162,-0.030000565,-0.165541032,3.276518835,-2.860607221,0.673325256,-176.998497623,-177.107678039,0.523930814,176.968402757
158959.787802000,181203_204828628.jpg,6038387.268,2240127.000,95.727,-3.276141653,-0.169972674,-0.040195862,-0.031979898,-0.160832422,3.276734673,-2.776964140,0.701997967,-177.030045122,-177.189997379,0.558498808,176.999276905
158960.057747000,181203_204828898.jpg,6038396.579,2240126.869,95.778,-3.276229799,-0.170751093,-0.027854027,-0.020109299,-0.151101626,3.277291670,-2.617703995,0.486448412,-177.016548340,-177.360210044,0.351186600,176.997291916
158960.327739000,181203_204829168.jpg,6038405.805,2240126.714,95.792,-3.276235968,-0.170667555,-0.027640500,-0.019790472,-0.153179731,3.277197141,-2.654287512,0.482719255,-177.018010926,-177.323880346,0.345618718,176.998703397
158960.597777000,181203_204829439.jpg,6038415.000,2240126.575,95.793,-3.276015082,-0.173839539,-0.033423266,-0.025510004,-0.151644810,3.277229188,-2.621723426,0.583713858,-176.962486859,-177.350683678,0.445505708,176.938776898
158960.867909000,181203_204829709.jpg,6038424.201,2240126.397,95.801,-3.275839124,-0.176487072,-0.036629078,-0.027813308,-0.166022364,3.276513706,-2.870098452,0.639703376,-176.916149584,-177.099277889,0.485731315,176.887769837
158961.138041000,181203_204829980.jpg,6038433.453,2240126.275,95.824,-3.275752253,-0.180071151,-0.025212595,-0.016494587,-0.160956258,3.276842570,-2.791811733,0.440316939,-176.853564406,-177.187929918,0.288059092,176.835710858
158961.407986000,181203_204830250.jpg,6038442.672,2240126.159,95.811,-3.275338344,-0.186703820,-0.030220978,-0.021424726,-0.156714860,3.277019782,-2.711971727,0.527786476,-176.737504373,-177.262064789,0.374159381,176.716017204
158961.677885000,181203_204830520.jpg,6038451.892,2240126.083,95.795,-3.275026128,-0.189638571,-0.043021763,-0.034473278,-0.150219419,3.277213134,-2.584941304,0.751353496,-176.686020212,-177.375538267,0.602044879,176.655226341
158961.947923000,181203_204830790.jpg,6038461.215,2240126.003,95.824,-3.274907359,-0.193736734,-0.032559796,-0.024203015,-0.143766706,3.277594078,-2.481999399,0.568633471,-176.614446141,-177.488416497,0.422680238,176.592813989
158962.218055000,181203_204831061.jpg,6038470.561,2240125.881,95.837,-3.274718578,-0.196556278,-0.034577918,-0.025425475,-0.154921426,3.277076591,-2.674881616,0.603879803,-176.565094136,-177.293397813,0.444029487,176.540453727
158962.488093000,181203_204831331.jpg,6038479.926,2240125.809,95.836,-3.274597130,-0.197292029,-0.041226702,-0.032374593,-0.149495261,3.277267576,-2.572748529,0.720001951,-176.552139960,-177.388215436,0.565392198,176.523032676
158962.757992000,181203_204831601.jpg,6038489.347,2240125.699,95.854,-3.274547670,-0.198136613,-0.041104908,-0.031631707,-0.159037502,3.276825639,-2.739867566,0.717874787,-176.537363741,-177.221385290,0.552417962,176.506744806
158963.027890000,181203_204831871.jpg,6038498.835,2240125.630,95.888,-3.274754525,-0.196537827,-0.031116512,-0.022034719,-0.153727715,3.277157236,-2.657604719,0.543426762,-176.565453413,-177.314288165,0.384812527,176.543775848
158963.297929000,181203_204832142.jpg,6038508.312,2240125.535,95.893,-3.274884225,-0.193783268,-0.034540945,-0.025538450,-0.154585124,3.277091618,-2.669406106,0.603234068,-176.613610985,-177.299276690,0.446002519,176.588990537
158963.567967000,181203_204832412.jpg,6038517.789,2240125.410,95.904,-3.275058993,-0.190420884,-0.036601554,-0.027260627,-0.163051300,3.276667513,-2.816049277,0.639222667,-176.672413083,-177.151235130,0.476079353,176.644808449
158963.837866000,181203_204832682.jpg,6038527.251,2240125.312,95.934,-3.275342787,-0.185444380,-0.036758710,-0.027799049,-0.160674500,3.276780397,-2.774994025,0.641967417,-176.759469369,-177.192791314,0.485482269,176.731970470
158964.107718000,181203_204832952.jpg,6038536.676,2240125.200,95.954,-3.275483682,-0.182459113,-0.039063326,-0.030348887,-0.158908675,3.276843970,-2.742271493,0.682217924,-176.811663507,-177.223648140,0.530013800,176.782436516
158964.377663000,181203_204833223.jpg,6038546.083,2240125.062,95.987,-3.275702745,-0.179043498,-0.036416468,-0.027592258,-0.163851019,3.276624850,-2.831898769,0.635990130,-176.871437924,-177.137248862,0.481870935,176.843621567
158964.647655000,181203_204833493.jpg,6038555.419,2240124.947,96.020,-3.275575831,-0.181688861,-0.034695031,-0.026026958,-0.158711806,3.276890543,-2.743180659,0.605925178,-176.825184612,-177.227121667,0.454533804,176.799622231
158964.917694000,181203_204833763.jpg,6038564.686,2240124.812,96.040,-3.275413673,-0.182688632,-0.043583626,-0.034539687,-0.164585083,3.276522454,-2.837238676,0.761166737,-176.807593035,-177.124355612,0.603204845,176.773546573
158965.187685000,181203_204834034.jpg,6038573.931,2240124.668,96.063,-3.275433091,-0.183197847,-0.039835475,-0.030221836,-0.174190352,3.276068405,-3.009040329,0.695703714,-176.798732137,-176.956417040,0.527795201,176.766379178
158965.457677000,181203_204834304.jpg,6038583.178,2240124.576,96.100,-3.275287183,-0.186828910,-0.034646065,-0.025630880,-0.160455463,3.276808729,-2.773057759,0.605069982,-176.735272367,-177.196636604,0.447616741,176.709620615
158965.727669000,181203_204834574.jpg,6038592.394,2240124.440,96.105,-3.275138557,-0.186962927,-0.046054852,-0.036264003,-0.173852149,3.276025268,-2.996310739,0.804328270,-176.732787632,-176.962275482,0.633319516,176.694899709
158965.997614000,181203_204834844.jpg,6038601.656,2240124.382,96.135,-3.275090237,-0.189123725,-0.040326621,-0.031424334,-0.156658369,3.276942221,-2.700515317,0.704281728,-176.695061855,-177.262985705,0.548796152,176.665297691
158966.267560000,181203_204835115.jpg,6038610.915,2240124.256,96.148,-3.274894636,-0.192316831,-0.041100445,-0.031667189,-0.163071610,3.276627038,-2.811515945,0.717796834,-176.639188871,-177.150846067,0.553037515,176.607765535
158966.537505000,181203_204835385.jpg,6038620.217,2240124.179,96.171,-3.274886199,-0.193604627,-0.035338887,-0.026229871,-0.156521625,3.276994262,-2.702522933,0.617170131,-176.616727544,-177.265414602,0.458077719,176.591183336
158966.807450000,181203_204835655.jpg,6038629.552,2240124.082,96.194,-3.274816792,-0.195220740,-0.032798038,-0.023264057,-0.162293581,3.276735796,-2.806043120,0.572794335,-176.588480000,-177.164511247,0.406281797,176.564341347
158967.077395000,181203_204835925.jpg,6038638.857,2240124.035,96.198,-3.274461815,-0.199115613,-0.043152566,-0.034277909,-0.148552475,3.277291154,-2.553876964,0.753638054,-176.520205653,-177.404682610,0.598632811,176.489795716
158967.347387000,181203_204836195.jpg,6038648.212,2240123.990,96.238,-3.274418129,-0.201854338,-0.032444342,-0.023794927,-0.142798895,3.277639353,-2.464136187,0.566617091,-176.472416114,-177.505337096,0.415553162,176.451133896
158967.617379000,181203_204836466.jpg,6038657.482,2240123.928,96.240,-3.274175904,-0.203277479,-0.045377703,-0.036531153,-0.145168675,3.277418516,-2.491437236,0.792501393,-176.447346785,-177.463820481,0.637985564,176.415941597
158967.887324000,181203_204836736.jpg,6038666.783,2240123.848,96.280,-3.274287124,-0.204078034,-0.031749065,-0.022424532,-0.152015905,3.277234451,-2.626053956,0.554474195,-176.433512489,-177.344213884,0.391620299,176.411674850
158968.157316000,181203_204837006.jpg,6038675.993,2240123.803,96.301,-3.274089391,-0.206748595,-0.034712954,-0.025583478,-0.147063056,3.277437401,-2.535708089,0.606238201,-176.386746713,-177.430783257,0.446788799,176.363261099
158968.427308000,181203_204837277.jpg,6038685.155,2240123.687,96.325,-3.274078683,-0.207330531,-0.032166608,-0.021900224,-0.164440570,3.276638096,-2.842878679,0.561766502,-176.376591705,-177.126977247,0.382463710,176.353005941
158968.697347000,181203_204837547.jpg,6038694.286,2240123.497,96.361,-3.274498360,-0.202736706,-0.013218328,-0.000534489,-0.206820953,3.274308823,-3.606653714,0.230845395,-176.457121738,-176.385726010,0.009334213,176.449491257
158968.987384000,181203_204837837.jpg,6038703.917,2240123.283,96.331,-3.274880659,-0.195775787,-0.021048734,-0.006288552,-0.248564960,3.271399047,-4.330597331,0.367597471,-176.578870010,-175.654942678,0.109822124,176.560723309
158969.277422000,181203_204838128.jpg,6038713.418,2240123.139,96.303,-3.274829724,-0.194134970,-0.037582916,-0.022340328,-0.258345538,3.270571567,-4.485156165,0.656362285,-176.607422969,-175.483528831,0.390149704,176.566248566
158969.567413000,181203_204838418.jpg,6038722.846,2240123.139,96.330,-3.274886984,-0.192427109,-0.041191638,-0.028000010,-0.226146947,3.272912177,-3.916821158,0.719389564,-176.637258296,-176.047340407,0.488992040,176.595709979
158969.857405000,181203_204838708.jpg,6038732.185,2240123.087,96.354,-3.274515842,-0.198513451,-0.041808128,-0.028932809,-0.214211225,3.273706911,-3.705965034,0.730156822,-176.530760545,-176.256252689,0.505282828,176.490553156
158970.147442000,181203_204838998.jpg,6038741.424,2240123.020,96.384,-3.274432701,-0.200754888,-0.037396447,-0.024782168,-0.207676577,3.274161812,-3.595771211,0.653105571,-176.491597432,-176.370650953,0.432794688,176.457315530
158970.437434000,181203_204839289.jpg,6038750.565,2240122.906,96.422,-3.274353621,-0.201559332,-0.039900938,-0.026216658,-0.224020346,3.273073116,-3.879563555,0.696847052,-176.477489399,-176.084585561,0.457846916,176.438163559
158970.705425000,181203_204839557.jpg,6038758.941,2240122.829,96.466,-3.274432207,-0.201812915,-0.031260707,-0.017474994,-0.225430060,3.273034353,-3.913553666,0.545945119,-176.473153322,-176.059977535,0.305180909,176.443928809
158971.037416000,181203_204839889.jpg,6038769.151,2240122.704,96.494,-3.274479202,-0.198041822,-0.046621647,-0.032232146,-0.239324253,3.271936253,-4.141386268,0.814227787,-176.538944096,-175.816575542,0.562904085,176.488865235
158971.347453000,181203_204840200.jpg,6038778.655,2240122.625,96.546,-3.274744408,-0.197113035,-0.028425991,-0.014617105,-0.231132595,3.272650528,-4.016986806,0.496437583,-176.555415062,-175.960163541,0.255270886,176.528925905
158971.657397000,181203_204840510.jpg,6038788.035,2240122.422,96.558,-3.275028503,-0.193640437,-0.017517560,-0.001748878,-0.268284908,3.269846375,-4.680385175,0.305927992,-176.616249900,-175.309491308,0.030542181,176.602408656
158971.967388000,181203_204840820.jpg,6038797.193,2240122.350,96.495,-3.275023411,-0.188426023,-0.048219100,-0.033800324,-0.251684192,3.270992981,-4.358273350,0.842128636,-176.707160270,-175.600085779,0.590291892,176.652355069
158972.277378000,181203_204841131.jpg,6038806.359,2240122.261,96.550,-3.275309850,-0.185696494,-0.038370751,-0.024393419,-0.247856311,3.271368576,-4.301367531,0.670121964,-176.755040670,-175.667242971,0.426005308,176.713676974
158972.608368000,181203_204841462.jpg,6038816.001,2240122.224,96.581,-3.275268369,-0.186731674,-0.036862203,-0.024351327,-0.221177130,3.273280805,-3.834851739,0.643774953,-176.736949129,-176.134371951,0.425270230,176.700971666
158972.939358000,181203_204841793.jpg,6038825.505,2240122.142,96.604,-3.275380599,-0.184616575,-0.037535227,-0.025689214,-0.212014245,3.273876861,-3.673838223,0.655529401,-176.773941324,-176.294733283,0.448635581,176.738335286
158973.270348000,181203_204842125.jpg,6038834.874,2240121.966,96.625,-3.275352288,-0.183525293,-0.044658637,-0.031692761,-0.232846384,3.272408851,-4.032242608,0.779942456,-176.792943195,-175.930009930,0.553484048,176.745742562
158973.601338000,181203_204842456.jpg,6038844.162,2240121.829,96.676,-3.275484184,-0.183314160,-0.034787251,-0.021951798,-0.230971917,3.272621163,-4.009058515,0.607535826,-176.796753728,-175.962926482,0.383364212,176.761901455
158973.932328000,181203_204842787.jpg,6038853.282,2240121.618,96.690,-3.275475808,-0.181413975,-0.044224334,-0.029912080,-0.259368103,3.270430439,-4.498221528,0.772357088,-176.829881544,-175.465531493,0.522385122,176.778778543
158974.283318000,181203_204843139.jpg,6038862.825,2240121.482,96.713,-3.275408810,-0.181631414,-0.048112053,-0.033829747,-0.258429797,3.270466668,-4.477958063,0.840258971,-176.826024878,-175.481917503,0.590805756,176.769779649
158974.634307000,181203_204843490.jpg,6038872.246,2240121.309,96.769,-3.275510684,-0.180760438,-0.044315556,-0.029419112,-0.270659427,3.269519820,-4.696379120,0.773950348,-176.841312172,-175.267694103,0.513775852,176.788255021
158974.985296000,181203_204843841.jpg,6038881.541,2240121.188,96.812,-3.275382955,-0.184842753,-0.036194067,-0.021199717,-0.266773629,3.269902465,-4.635548211,0.632105895,-176.769999683,-175.335876108,0.370229870,176.729249133
158975.336286000,181203_204844193.jpg,6038890.651,2240121.076,96.825,-3.275257874,-0.185315368,-0.044186995,-0.029476721,-0.260949558,3.270308559,-4.525389586,0.771704956,-176.761635209,-175.437830411,0.514782094,176.710550616
158975.708274000,181203_204844565.jpg,6038900.156,2240121.030,96.853,-3.275057072,-0.187816790,-0.048306010,-0.034702837,-0.238523229,3.271969560,-4.127428648,0.843646614,-176.717817279,-175.830570378,0.606054021,176.665275626
158976.080263000,181203_204844938.jpg,6038909.499,2240120.981,96.886,-3.274500330,-0.196156826,-0.052691354,-0.039533716,-0.221296217,3.273125148,-3.819171285,0.920241391,-176.571830142,-176.132113380,0.690424830,176.517760075
158976.452252000,181203_204845310.jpg,6038918.631,2240120.987,96.961,-3.274237214,-0.201741727,-0.047732286,-0.035721260,-0.197020139,3.274719649,-3.397704045,0.833626019,-176.474184818,-176.557007495,0.623840573,176.430644112
158976.844240000,181203_204845702.jpg,6038927.862,2240120.922,97.030,-3.273954603,-0.205962742,-0.049067734,-0.036424807,-0.202991711,3.274347208,-3.500123866,0.856950837,-176.400296731,-176.452512605,0.636128058,176.354345648
158977.259228000,181203_204846118.jpg,6038937.145,2240120.911,97.089,-3.273499266,-0.214300408,-0.043430988,-0.031293807,-0.187623378,3.275316567,-3.235512754,0.758500868,-176.254462804,-176.721448159,0.546516508,176.217337164
158977.695214000,181203_204846554.jpg,6038946.342,2240120.943,97.154,-3.273310668,-0.219045771,-0.032666249,-0.021491189,-0.169275251,3.276394612,-2.925679496,0.570492680,-176.171547528,-177.042436484,0.375320224,176.147233290
158978.156201000,181203_204847016.jpg,6038955.434,2240120.907,97.194,-3.273385001,-0.217777745,-0.033675844,-0.021915264,-0.178987314,3.275875637,-3.094878981,0.588125165,-176.193730758,-176.872581656,0.382726347,176.167335394
158978.658139000,181203_204847518.jpg,6038964.715,2240120.901,97.223,-3.273704326,-0.213887109,-0.026916164,-0.015899951,-0.170810897,3.276346619,-2.959746693,0.470069041,-176.261899431,-177.015610629,0.277674347,176.242465473
158979.203122000,181203_204848064.jpg,6038974.122,2240120.853,97.249,-3.274140454,-0.207107247,-0.026889405,-0.016100887,-0.172755339,3.276243690,-2.994428065,0.469601711,-176.380551644,-176.981605141,0.281183760,176.360811905
158979.770105000,181203_204848631.jpg,6038983.219,2240120.838,97.248,-3.274507262,-0.201127485,-0.027603210,-0.017959483,-0.159322318,3.276914760,-2.758839505,0.482068029,-176.485182051,-177.216492549,0.313642192,176.465900559
158980.407086000,181203_204849269.jpg,6038992.689,2240120.755,97.256,-3.274743462,-0.196833948,-0.030380821,-0.020731609,-0.162867219,3.276724229,-2.818430733,0.530578131,-176.560279449,-177.154495473,0.362054798,176.538180188
158981.091065000,181203_204849954.jpg,6039002.212,2240120.682,97.281,-3.274752535,-0.197387420,-0.025427880,-0.015993888,-0.158820844,3.276949209,-2.752704256,0.444076816,-176.550640255,-177.225269164,0.279314847,176.533152903
158981.807043000,181203_204850670.jpg,6039011.495,2240120.628,97.294,-3.274571644,-0.199372114,-0.032282221,-0.023308523,-0.149835133,3.277328739,-2.587855651,0.563785691,-176.515850593,-177.382334780,0.407058364,176.493765698
158982.609020000,181203_204851473.jpg,6039021.151,2240120.532,97.324,-3.274452784,-0.200827707,-0.035175293,-0.025850799,-0.154481880,3.277094050,-2.665967312,0.614312981,-176.490349492,-177.301080266,0.451457345,176.465368155
158983.435994000,181203_204852301.jpg,6039030.523,2240120.451,97.356,-3.274558745,-0.198567750,-0.038016312,-0.028904175,-0.152769731,3.277148899,-2.633281477,0.663931656,-176.529859294,-177.330993478,0.504782811,176.502788693
158984.315968000,181203_204853182.jpg,6039040.718,2240120.331,97.370,-3.274929030,-0.190751904,-0.045399978,-0.036473534,-0.155815704,3.276930274,-2.680324416,0.792890480,-176.666509581,-177.277676049,0.636978940,176.632771478
158985.106944000,181203_204853974.jpg,6039051.167,2240120.196,97.406,-3.275373407,-0.184457045,-0.038907189,-0.030228429,-0.156600451,3.276956202,-2.701681917,0.679490992,-176.776716066,-177.264007863,0.527910238,176.748033107
158985.796970000,181203_204854664.jpg,6039061.458,2240120.061,97.416,-3.275886643,-0.173902112,-0.043961904,-0.035498772,-0.161903417,3.276645822,-2.791559143,0.767773621,-176.961276647,-177.171239276,0.619955046,176.927206848
158986.420951000,181203_204855289.jpg,6039071.913,2240119.867,97.435,-3.276401632,-0.162187388,-0.049939870,-0.041939509,-0.164084794,3.276461455,-2.826812338,0.872183579,-177.166075867,-177.133028571,0.732442448,177.126170272
158986.980934000,181203_204855849.jpg,6039082.304,2240119.592,97.465,-3.277021715,-0.147361947,-0.054939384,-0.046918177,-0.180508927,3.275530369,-3.113745045,0.959506308,-177.425243375,-176.845716159,0.819396582,177.376540754
158987.495872000,181203_204856365.jpg,6039092.719,2240119.260,97.526,-3.277745182,-0.138215966,-0.029900731,-0.021383135,-0.204150973,3.274407364,-3.548451916,0.522193490,-177.585381942,-176.432370606,0.373433140,177.557508019
158987.988857000,181203_204856859.jpg,6039103.096,2240118.858,97.490,-3.278087731,-0.128802073,-0.034074402,-0.024503772,-0.244944066,3.271587089,-4.261314946,0.595085951,-177.749901304,-175.718246370,0.427932583,177.711682124
158988.458796000,181203_204857329.jpg,6039113.278,2240118.372,97.476,-3.278166422,-0.128359888,-0.027575864,-0.016193292,-0.291570774,3.267813235,-5.083478220,0.481590452,-177.757671904,-174.901282158,0.282797239,177.723605599
158988.928735000,181203_204857799.jpg,6039123.541,2240118.001,97.432,-3.278108641,-0.125414881,-0.043392058,-0.031931723,-0.298879682,3.267037550,-5.201422343,0.757820952,-177.809029136,-174.772935994,0.557657412,177.749051510
158989.377722000,181203_204858249.jpg,6039133.493,2240117.713,97.437,-3.277724567,-0.128255037,-0.060631365,-0.049534903,-0.282208665,3.268301012,-4.896641250,1.058926576,-177.759199965,-175.064908604,0.865099314,177.676545489
158989.826708000,181203_204858698.jpg,6039143.780,2240117.307,97.511,-3.277417289,-0.140855453,-0.047983760,-0.034407636,-0.314649558,3.265531455,-5.472278239,0.838018267,-177.539080668,-174.496266957,0.600898381,177.470042113
158990.275648000,181203_204859148.jpg,6039154.296,2240117.142,97.534,-3.276040568,-0.170799257,-0.044647358,-0.030143187,-0.278641113,3.268842715,-4.837737136,0.779745503,-177.015536243,-175.127797136,0.526421603,176.960108615
158990.704635000,181203_204859577.jpg,6039164.469,2240116.962,97.562,-3.273277596,-0.215297195,-0.053909133,-0.034460121,-0.296030535,3.267271336,-5.125907280,0.941511524,-176.236836841,-174.822860161,0.601814907,176.167385717
158991.133622000,181203_204900006.jpg,6039174.722,2240117.080,97.612,-3.271142137,-0.246267022,-0.050868894,-0.031209379,-0.262546397,3.270164747,-4.535850463,0.888409995,-175.694624972,-175.409830954,0.545042142,175.637509189
158991.562609000,181203_204900436.jpg,6039184.970,2240117.120,97.660,-3.271616690,-0.240603016,-0.047341582,-0.027630412,-0.269288358,3.269648573,-4.659785657,0.826802076,-175.793894599,-175.291742961,0.482537094,175.740327930
158991.991596000,181203_204900865.jpg,6039195.229,2240117.238,97.713,-3.272843979,-0.224732201,-0.039953111,-0.023930095,-0.235026781,3.272318678,-4.069503357,0.697758323,-176.071909704,-175.891915119,0.417913602,176.032053044
158992.420630000,181203_204901295.jpg,6039205.635,2240117.275,97.732,-3.274885066,-0.196537409,-0.010792867,0.002278908,-0.219773196,3.273464153,-3.836304291,0.188486898,-176.565597272,-176.159049808,-0.039798477,176.560546893
158992.829664000,181203_204901704.jpg,6039215.555,2240117.055,97.598,-3.274720800,-0.192642810,-0.051943665,-0.035834938,-0.274386142,3.269145378,-4.752129641,0.907182101,-176.633327053,-175.202289918,0.625826052,176.569374814
158993.238698000,181203_204902114.jpg,6039225.859,2240117.111,97.624,-3.275445764,-0.181028244,-0.047859687,-0.036590558,-0.205757560,3.274172729,-3.554709139,0.835851211,-176.836579347,-176.404111089,0.639022828,176.790513258
158993.647686000,181203_204902523.jpg,6039236.409,2240116.880,97.648,-3.275397722,-0.178564574,-0.059063072,-0.046428929,-0.232917897,3.272228407,-4.020623351,1.031533344,-176.879499982,-175.928540301,0.810851541,176.814390452
158994.034674000,181203_204902911.jpg,6039246.721,2240116.735,97.686,-3.275788106,-0.177920543,-0.034154392,-0.021628367,-0.232237081,3.272533760,-4.032478463,0.596482989,-176.891102408,-175.940778748,0.377715931,176.856640394
158994.421663000,181203_204903298.jpg,6039257.120,2240116.571,97.695,-3.275352497,-0.181166298,-0.053386356,-0.040738918,-0.230008672,3.272509747,-3.974453226,0.932380523,-176.834081827,-175.979570827,0.711473850,176.776680016
158994.788652000,181203_204903665.jpg,6039267.202,2240116.397,97.725,-3.275048540,-0.188411972,-0.046528438,-0.032606802,-0.243258945,3.271642389,-4.212171612,0.812599871,-176.707430484,-175.747666114,0.569447411,176.656324327
158995.155640000,181203_204904033.jpg,6039277.405,2240116.229,97.769,-3.273975815,-0.209379615,-0.029216706,-0.012105916,-0.268872109,3.269776580,-4.677547082,0.510247189,-176.340763081,-175.299170882,0.211415530,176.311156962
158995.522676000,181203_204904400.jpg,6039287.555,2240116.241,97.744,-3.273638497,-0.209951938,-0.053070649,-0.038242181,-0.232774672,3.272344215,-4.017224586,0.926866293,-176.330411093,-175.931178949,0.667868285,176.274102008
158995.889665000,181203_204904768.jpg,6039297.697,2240116.091,97.773,-3.272549978,-0.212070578,-0.095067809,-0.077885746,-0.265474104,3.269151367,-4.543172908,1.660497531,-176.292254283,-175.357435229,1.360306785,176.171148666
158996.256654000,181203_204905135.jpg,6039308.098,2240116.101,98.002,-3.273615216,-0.214045464,-0.035175822,-0.019321329,-0.244024424,3.271690331,-4.234238902,0.614322241,-176.259038186,-175.734396788,0.337425535,176.223680870
158996.623643000,181203_204905502.jpg,6039318.347,2240115.981,98.026,-3.273943127,-0.209729606,-0.030338182,-0.013217982,-0.268552923,3.269798543,-4.670665138,0.529833462,-176.334626605,-175.304758038,0.230836584,176.303466616
158996.990632000,181203_204905870.jpg,6039328.499,2240115.993,98.019,-3.274229389,-0.199200024,-0.057837161,-0.043546436,-0.236247613,3.272029238,-4.075297045,1.010120637,-176.518487579,-175.870285447,0.760507758,176.455049004
158997.357621000,181203_204906237.jpg,6039338.782,2240115.881,98.089,-3.275162272,-0.188311740,-0.038201161,-0.024312275,-0.242977577,3.271735142,-4.215616831,0.667160096,-176.709292261,-175.752686844,0.424588236,176.668911941
158997.724609000,181203_204906605.jpg,6039348.973,2240115.740,98.100,-3.275658837,-0.177029383,-0.048227518,-0.035094744,-0.244126868,3.271552088,-4.227795350,0.842275734,-176.906521948,-175.732432680,0.612898726,176.852514361
158998.091598000,181203_204906972.jpg,6039359.209,2240115.579,98.144,-3.276202450,-0.168585676,-0.041039416,-0.028683313,-0.241413114,3.271815708,-4.188264600,0.716731012,-177.054292024,-175.780038317,0.500925541,177.009547543
158998.458587000,181203_204907339.jpg,6039369.429,2240115.475,98.163,-3.276324247,-0.167390195,-0.035902929,-0.024497977,-0.224900866,3.273025986,-3.903551342,0.627021205,-177.075252873,-176.069187468,0.427831375,177.039128286
158998.825576000,181203_204907707.jpg,6039379.633,2240115.343,98.175,-3.276406305,-0.165582028,-0.036785319,-0.026038332,-0.214460333,3.273714797,-3.720030889,0.642432200,-177.106864683,-176.251920557,0.454732562,177.071050984
158999.192565000,181203_204908074.jpg,6039389.817,2240115.170,98.174,-3.276339479,-0.165442393,-0.042846334,-0.032102965,-0.214467177,3.273660717,-3.714824780,0.748289619,-177.109241451,-176.251739269,0.560648105,177.066557193
158999.559554000,181203_204908441.jpg,6039400.019,2240114.936,98.203,-3.276414257,-0.164281589,-0.041579453,-0.030249214,-0.227475911,3.272800144,-3.944122025,0.726162971,-177.129555438,-176.024050881,0.528273020,177.086138305
158999.926590000,181203_204908809.jpg,6039410.210,2240114.759,98.230,-3.276505044,-0.162671856,-0.040747596,-0.030043309,-0.217295698,3.273493671,-3.766685723,0.711634285,-177.157714111,-176.202255745,0.524677026,177.116845482
159000.293578000,181203_204909176.jpg,6039420.363,2240114.513,98.243,-3.276470475,-0.160923320,-0.049503723,-0.038143002,-0.232513483,3.272363934,-4.026167233,0.864565863,-177.188186502,-175.935753456,0.666136011,177.134082414
159000.660614000,181203_204909544.jpg,6039430.543,2240114.302,98.282,-3.276748598,-0.157617422,-0.041024922,-0.029887171,-0.232941980,3.272418974,-4.041476601,0.716477872,-177.246094009,-175.928356989,0.521950257,177.202182285
159001.027603000,181203_204909911.jpg,6039440.700,2240114.048,98.315,-3.276850911,-0.154739705,-0.043711594,-0.032348212,-0.241766195,3.271755591,-4.194404235,0.763401851,-177.296382735,-175.773811500,0.564931396,177.247501229
159001.394545000,181203_204910278.jpg,6039450.958,2240113.779,98.339,-3.276727908,-0.152483981,-0.058363197,-0.046695008,-0.251097066,3.270879922,-4.346478338,1.019308795,-177.335637749,-175.610158454,0.815498864,177.265614302
159001.761534000,181203_204910646.jpg,6039461.666,2240113.492,98.365,-3.276592534,-0.156382920,-0.055585799,-0.042908131,-0.265737612,3.269774821,-4.604598632,0.970796957,-177.267500572,-175.353729363,0.749359684,177.197979217
159002.107477000,181203_204910992.jpg,6039472.181,2240113.251,98.379,-3.276353259,-0.160373821,-0.058249388,-0.045137892,-0.267867405,3.269571100,-4.638773292,1.017320924,-177.197672482,-175.316365728,0.788302812,177.124138352
159002.442467000,181203_204911327.jpg,6039482.696,2240113.022,98.387,-3.275900749,-0.163975696,-0.072016244,-0.058382593,-0.271767478,3.269040037,-4.694297897,1.257793086,-177.134442928,-175.247714752,1.019634484,177.040482850
159002.778503000,181203_204911664.jpg,6039493.699,2240112.749,98.466,-3.275989086,-0.170524710,-0.049217451,-0.034129760,-0.289824920,3.267831089,-5.029945457,0.859565850,-177.020278159,-174.931679813,0.596045385,176.956045874
159003.083494000,181203_204911969.jpg,6039503.912,2240112.571,98.473,-3.275542070,-0.178578170,-0.050390065,-0.034572101,-0.290173875,3.267795483,-5.033503529,0.880046760,-176.879400111,-174.925554409,0.603770845,176.813866659
159003.388485000,181203_204912274.jpg,6039514.359,2240112.448,98.477,-3.275241968,-0.185915750,-0.042806851,-0.026962891,-0.279769245,3.268774018,-4.856987922,0.747600049,-176.751150301,-175.108064500,0.470879255,176.699236587
159003.693476000,181203_204912580.jpg,6039524.947,2240112.346,98.479,-3.274471392,-0.195111061,-0.058069630,-0.041902971,-0.271808008,3.269288826,-4.700020607,1.014181132,-176.590033325,-175.247369301,0.731804340,176.517952099
159003.978514000,181203_204912865.jpg,6039535.030,2240112.282,98.511,-3.274007201,-0.203880514,-0.053980472,-0.037782715,-0.261054270,3.270215102,-4.513728242,0.942757600,-176.436651604,-175.435877729,0.659843555,176.373114039
159004.263459000,181203_204913150.jpg,6039545.261,2240112.232,98.550,-3.273733684,-0.211003548,-0.041862133,-0.025460426,-0.255768709,3.270751395,-4.433156211,0.731100106,-176.312188343,-175.528638994,0.444639811,176.266446453
159004.548450000,181203_204913435.jpg,6039555.597,2240112.155,98.557,-3.273859229,-0.208774084,-0.043196864,-0.026398662,-0.264535681,3.270046629,-4.585877499,0.754411832,-176.351187474,-175.375035672,0.461025357,176.302274543
159004.833441000,181203_204913721.jpg,6039566.007,2240112.081,98.544,-3.273684415,-0.206982704,-0.061245588,-0.044234468,-0.269708180,3.269432083,-4.657013217,1.069655294,-176.382219837,-175.284124776,0.772524440,176.306823088
159005.118433000,181203_204914006.jpg,6039576.632,2240112.057,98.593,-3.273934283,-0.208321129,-0.039551330,-0.023379668,-0.255466042,3.270790513,-4.430777703,0.690741128,-176.359165853,-175.533961920,0.408300933,176.316438273
159005.403424000,181203_204914291.jpg,6039587.261,2240112.005,98.573,-3.273774650,-0.205707249,-0.060718045,-0.045141608,-0.249021581,3.271060334,-4.294769793,1.060440678,-176.404553272,-175.646542511,0.788368022,176.334740299
159005.668370000,181203_204914557.jpg,6039597.293,2240111.949,98.640,-3.274028864,-0.204082592,-0.051864695,-0.036852531,-0.242184745,3.271677166,-4.184835233,0.905802848,-176.433152422,-175.766420378,0.643598023,176.376187673
159005.933362000,181203_204914822.jpg,6039607.336,2240111.883,98.682,-3.274450605,-0.199794436,-0.040776229,-0.026179275,-0.240701803,3.271889013,-4.171483773,0.712134371,-176.508359750,-175.792521416,0.457194084,176.465549486
159006.198353000,181203_204915087.jpg,6039617.327,2240111.840,98.700,-3.274806566,-0.192692708,-0.046016526,-0.032683292,-0.228166814,3.272728736,-3.947245840,0.803658988,-176.632545022,-176.011927153,0.570783328,176.584901501
159006.463299000,181203_204915352.jpg,6039627.315,2240111.759,98.729,-3.275296552,-0.185522226,-0.040266233,-0.028169475,-0.215349746,3.273638841,-3.729483092,0.703227118,-176.758066292,-176.236333911,0.491951559,176.718935149
159006.728291000,181203_204915618.jpg,6039637.286,2240111.668,98.763,-3.275718076,-0.179534337,-0.032368981,-0.021359012,-0.202884922,3.274486204,-3.519489915,0.565300996,-176.862892900,-176.454524026,0.373011868,176.833912449
159006.993283000,181203_204915883.jpg,6039647.197,2240111.530,98.783,-3.276219318,-0.170797218,-0.028729931,-0.018131005,-0.205331841,3.274353032,-3.566682776,0.501745839,-177.015734353,-176.411728796,0.316637637,176.990125519
159007.258275000,181203_204916148.jpg,6039657.018,2240111.412,98.785,-3.276546536,-0.164469661,-0.028333838,-0.018997342,-0.188227733,3.275375840,-3.268022805,0.494828208,-177.126390626,-176.710969981,0.331767251,177.102686548
159007.523267000,181203_204916413.jpg,6039666.773,2240111.217,98.794,-3.276912977,-0.157481690,-0.025530038,-0.016312193,-0.194042376,3.275050905,-3.372926166,0.445860998,-177.248599687,-176.609264630,0.284873738,177.226975520
159007.788259000,181203_204916679.jpg,6039676.401,2240111.004,98.786,-3.277227428,-0.148119885,-0.038062755,-0.029467555,-0.192306772,3.275061813,-3.333462806,0.664742834,-177.412180622,-176.639534274,0.514621906,177.377676618
159008.053251000,181203_204916944.jpg,6039685.975,2240110.716,98.807,-3.277696265,-0.137258637,-0.038405864,-0.029671185,-0.210433130,3.273945349,-3.652368952,0.670735302,-177.602051046,-176.322366379,0.518178205,177.563958296
159008.318243000,181203_204917209.jpg,6039695.490,2240110.415,98.835,-3.278097201,-0.127326441,-0.038399014,-0.029908049,-0.220282671,3.273295268,-3.826473281,0.670615659,-177.775660132,-176.149974711,0.522314765,177.735628409
159008.583235000,181203_204917474.jpg,6039704.947,2240110.054,98.854,-3.278470783,-0.115582773,-0.043317944,-0.035022422,-0.236358328,3.272123255,-4.106941548,0.756526562,-177.980868558,-175.868475120,0.611635648,177.931600923
